Number,Title,GivenName,Surname,StreetAddress,City,StateFull,ZipCode,CountryFull,EmailAddress,TelephoneNumber,Birthday,CCType,CCNumber,CVV2,CCExpires,Vehicle,Kilograms,Centimeters,Latitude,Longitude
2,Mr.,Joseph,Richard,"68 rue du Faubourg National",THIAIS,Île-de-France,94320,France,JosephRichard@armyspy.com,01.58.58.39.50,7/29/1989,MasterCard,5315456661983356,487,7/2019,"2004 Ferrari 575M Maranello",98.2,171,48.721462,2.321479
3,Mrs.,Melusina,Cuillerier,"81 Boulevard de Normandie",FONTENAY-SOUS-BOIS,Île-de-France,94120,France,MelusinaCuillerier@einrot.com,01.39.85.49.31,9/11/1966,Visa,4485886808890212,305,5/2021,"2011 Koenigsegg CCXR",79.9,163,48.815641,2.442996
5,Ms.,Blondelle,Ayot,"12 Rue Frédéric Chopin",VESOUL,Franche-Comté,70000,France,BlondelleAyot@teleworm.us,03.40.73.27.75,8/1/1956,MasterCard,5307987826156546,886,2/2018,"2000 Ford Galaxy",60.6,163,47.594277,6.099707
6,Mrs.,Leah,Mauer,"Lietzensee-Ufer 73",Pirna,"Freistaat Sachsen",01784,Germany,LeahMauer@superrito.com,"03501 90 48 12",4/2/1953,Visa,4929141978478214,309,2/2020,"2010 BMW 750",55.4,171,50.903214,13.922166
6,Mr.,Noël,Savard,"85 boulevard de Prague",NOISY-LE-GRAND,Île-de-France,93160,France,NoelSavard@cuvox.de,01.64.46.83.06,12/13/2001,Visa,4556066786387192,156,9/2019,"2007 Alfa Romeo Crosswagon",53.2,176,48.912024,2.528964
7,Mr.,Wolfgang,Beike,"Borstelmannsweg 37",Pirk,"Freistaat Bayern",92712,Germany,WolfgangBeike@einrot.com,"09607 45 11 01",5/4/1958,MasterCard,5291733096929826,712,4/2020,"1999 Opel Frontera",80.9,173,49.599002,12.102633
10,Mrs.,Johanna,Wagner,"Eichendorffstr. 96",Irndorf,Baden-Württemberg,78597,Germany,JohannaWagner@rhyta.com,"07466 42 73 02",11/18/1938,MasterCard,5198976557055870,940,10/2017,"2006 Subaru Outback",52.9,150,48.051992,9.037575
10,Mr.,Tyson,Picard,"41 cours Jean Jaures",BORDEAUX,Aquitaine,33300,France,TysonPicard@fleckens.hu,05.70.49.75.46,11/12/1970,Visa,4916103963178568,253,6/2020,"2003 Proton Juara",85.6,189,44.912378,-0.656765
11,Mr.,Dennis,Kaiser,"Hans-Grade-Allee 30",Bargteheide,Schleswig-Holstein,22935,Germany,DennisKaiser@dayrep.com,"04532 94 56 67",7/22/1973,Visa,4539180398672859,408,5/2018,"2011 Cadillac STS",102.1,173,53.684513,10.179935
13,Mr.,Phillipp,Winkel,"Fasanenstrasse 8","Hamburg Rönneburg",Hamburg,21077,Germany,PhillippWinkel@dayrep.com,"040 85 01 95",4/12/1974,MasterCard,5157764120544888,757,8/2017,"2005 BMW 730",83.2,189,53.42283,10.084521
14,Mr.,Tim,Schweizer,"Ollenhauer Str. 25","Stuttgart Mitte",Baden-Württemberg,70173,Germany,TimSchweizer@fleckens.hu,"0711 87 67 54",10/13/1977,MasterCard,5533502510871783,492,6/2021,"2002 Suzuki Swift",80.9,184,48.730511,9.147198
14,Ms.,Ninette,Morneau,"86 Rue de Strasbourg",CLERMONT-FERRAND,Auvergne,63000,France,NinetteMorneau@armyspy.com,04.69.61.28.59,6/13/1948,MasterCard,5166050014076552,718,9/2019,"1995 Nissan Sentra",66.7,163,45.781641,3.012825
15,Ms.,Sibyla,Lavoie,"65 rue Victor Hugo",CONCARNEAU,Bretagne,29900,France,SibylaLavoie@rhyta.com,02.22.08.79.16,8/12/1933,Visa,4539890451203554,301,5/2021,"2009 Ford Galaxy",48.2,161,47.796012,-3.90482
17,Mrs.,Birgit,Jager,"Borstelmannsweg 96",Rodach,"Freistaat Bayern",96476,Germany,BirgitJager@cuvox.de,"09564 15 66 96",5/8/1998,MasterCard,5500929003958737,005,8/2019,"2002 Rover 75",83.0,153,50.420495,10.759531
17,Mr.,Philippe,Petit,"94 rue Reine Elisabeth",METZ,Lorraine,57000,France,PhilippePetit@fleckens.hu,03.91.39.60.66,4/20/1997,MasterCard,5357304845994783,712,11/2021,"2009 Ford Transit Connect",51.6,179,49.181668,6.101222
18,Ms.,Julia,Zimmerman,"An der Alster 73",Wolmirstedt,Sachsen-Anhalt,39322,Germany,JuliaZimmerman@gustr.com,"039201 64 92",5/15/1991,MasterCard,5226880624178234,363,2/2019,"2011 Honda Accord",83.6,168,52.297384,11.701182
20,Ms.,Gabriele,Berg,"Schoenebergerstrasse 74",Ellefeld,"Freistaat Sachsen",08236,Germany,GabrieleBerg@einrot.com,"03744 49 19 07",5/6/1957,MasterCard,5245939356558471,043,11/2018,"2007 Honda Civic",52.7,163,50.430266,12.398433
20,Mrs.,Alphonsine,Robillard,"3 rue Saint Germain",GAP,"Provence-Alpes-Côte d'Azur",05000,France,AlphonsineRobillard@cuvox.de,04.84.86.39.64,5/27/1981,MasterCard,5448597505682041,701,5/2019,"2012 BMW 330",94.8,163,44.426961,6.127555
21,Ms.,Jewel,Fresne,"34 rue Gouin de Beauchesne",SAINT-PAUL,Guyane,97460,France,JewelFresne@teleworm.us,02.78.80.43.18,12/5/1937,MasterCard,5214854570128661,113,5/2017,"1993 Alfa Romeo Spider",97.2,156,43.646077,7.149727
22,Ms.,Pansy,Fluet,"6 boulevard de Prague",NÎMES,Languedoc-Roussillon,30000,France,PansyFluet@dayrep.com,04.84.84.79.43,7/12/1984,MasterCard,5271955561997509,693,8/2021,"2002 BMW Formula One",99.4,171,43.780328,4.251069
25,Mr.,Gustave,Richard,"63 Rue de Verdun",MONT-DE-MARSAN,Aquitaine,40000,France,GustaveRichard@teleworm.us,05.58.72.40.73,12/25/1952,MasterCard,5509320230651074,881,9/2018,"2004 Bugatti EB 118",67.7,179,43.791715,-0.426244
26,Mr.,Uwe,Gottlieb,"Landhausstraße 18",Twistetal,Hessen,34477,Germany,UweGottlieb@armyspy.com,"02993 50 81 07",3/8/1952,MasterCard,5584623736084080,778,12/2019,"2005 Honda Inspire",93.4,181,51.294987,8.862502
27,Mr.,Peppin,St-Pierre,"24 rue Clement Marot",PIERREFITTE-SUR-SEINE,Île-de-France,93380,France,PeppinSt-Pierre@superrito.com,01.36.73.62.72,10/29/1942,MasterCard,5293613796891203,211,8/2020,"2002 Mitsubishi Magna",99.8,176,48.944072,2.289499
28,Mrs.,Jessica,Baum,"Frankfurter Allee 36",Neu-Ulm,"Freistaat Bayern",89218,Germany,JessicaBaum@superrito.com,"0731 96 51 96",8/10/1940,Visa,4929642852787398,519,9/2021,"2003 Chevrolet Monte Carlo",86.6,166,48.34745,9.963381
29,Mrs.,Lisa,Müller,"Schmarjestrasse 81",Brieskow-Finkenheerd,Brandenburg,15292,Germany,LisaMuller@einrot.com,"033609 13 65",10/11/1992,Visa,4532760731285811,028,9/2018,"1998 Kia Retona",50.0,171,52.322894,14.655895
29,Mr.,Russell,Hébert,"30 rue Léon Dierx",LIVRY-GARGAN,Île-de-France,93190,France,RussellHebert@cuvox.de,01.83.51.63.54,6/18/1974,Visa,4916072512466784,719,6/2018,"1998 Volvo V70",86.5,188,48.827677,2.446004
30,Ms.,Lea,Oster,"Konstanzer Strasse 77",Rothenbuch,"Freistaat Bayern",63860,Germany,LeaOster@armyspy.com,"06094 58 54 56",2/1/1982,MasterCard,5433569524551819,362,2/2018,"2000 Alfa Romeo 147",83.1,173,49.901926,9.468638
30,Mrs.,Fusberta,Monty,"76 boulevard Amiral Courbet",ORVAULT,"Pays de la Loire",44700,France,FusbertaMonty@gustr.com,02.43.21.95.93,6/29/1997,MasterCard,5580495306544312,451,11/2019,"2002 Cadillac Eldorado",83.7,155,47.229737,-1.707856
31,Mrs.,Sandra,Luft,"Leopoldstraße 57","Berlin Britz",Berlin,12347,Germany,SandraLuft@gustr.com,"030 30 12 93",1/18/1932,Visa,4716502704137894,380,7/2017,"2003 Chrysler Pacifica",65.7,163,52.517964,13.516
31,Ms.,Brier,Chouinard,"98 rue de Penthièvre",QUIMPER,Bretagne,29000,France,BrierChouinard@armyspy.com,02.65.06.49.95,6/23/1964,Visa,4532701920313675,715,3/2017,"2003 Rover 45",91.8,155,48.060085,-4.119826
32,Mr.,Daniel,Winkel,"Fontenay 76",Kronach,"Freistaat Bayern",96301,Germany,DanielWinkel@armyspy.com,"09261 87 03 87",6/24/1932,Visa,4916596255797658,491,3/2020,"2005 Kia Carnival",67.7,166,50.175244,11.3367
32,Ms.,Sophie,Mothé,"32 rue Gouin de Beauchesne",SAINT-NAZAIRE,"Pays de la Loire",44600,France,SophieMothe@jourrapide.com,02.05.20.98.64,7/16/1977,MasterCard,5120497248704993,859,5/2020,"2001 Oldsmobile Bravada",101.3,161,47.290806,-2.223553
33,Mr.,Dieter,Ackerman,"Luebeckertordamm 94",Allersberg,"Freistaat Bayern",90580,Germany,DieterAckerman@armyspy.com,"09174 51 19 80",8/11/1975,Visa,4929988897059362,781,2/2020,"2012 BMW 550",85.9,173,49.302176,11.145781
34,Mrs.,Claudia,Osterhagen,"Nuernbergerstrasse 60",Emstek,Niedersachsen,49685,Germany,ClaudiaOsterhagen@fleckens.hu,"04435 57 11 64",8/1/1972,Visa,4532065730313675,800,10/2017,"1994 Opel Calibra",60.8,156,52.907658,8.212488
34,Mr.,Tristan,Arcouet,"78 Rue du Palais",ÉTAMPES,Île-de-France,91150,France,TristanArcouet@jourrapide.com,01.63.13.91.14,6/11/1932,MasterCard,5284923960126596,633,5/2017,"2012 Tata Safari",94.2,179,48.31045,2.355812
36,Mrs.,Jeanne,Dupuis,"78 boulevard Albin Durand",CERGY,Île-de-France,95000,France,JeanneDupuis@gustr.com,01.32.18.11.31,5/22/1999,Visa,4716797246401515,860,12/2020,"1998 Chrysler Neon",76.9,151,48.989871,2.071115
37,Mr.,Martin,Kuester,"Messedamm 26",Halle,Sachsen-Anhalt,06114,Germany,MartinKuester@superrito.com,"0345 94 32 77",9/13/1943,MasterCard,5193930025496955,222,7/2018,"2003 GMC Sierra",90.2,173,51.485569,12.061371
37,Mr.,Medoro,Lafond,"73 rue du Clair Bocage","LA ROCHE-SUR-YON","Pays de la Loire",85000,France,MedoroLafond@cuvox.de,02.03.62.39.84,1/30/1939,MasterCard,5276372237429773,107,5/2020,"1996 Chevrolet Malibu",84.5,163,46.600495,-1.439824
38,Mr.,Octave,Goguen,"94 rue Jean Vilar",BESANÇON,Franche-Comté,25000,France,OctaveGoguen@dayrep.com,03.35.30.20.05,7/12/1974,Visa,4716583600638797,492,12/2020,"1999 Opel Signum",69.9,186,47.336929,6.025304
39,Ms.,Sarah,Blau,"Luckenwalder Strasse 82",Giesen,Niedersachsen,31180,Germany,SarahBlau@armyspy.com,"05066 95 66 50",7/7/1974,Visa,4556222575132766,391,8/2018,"2009 Ford F-350",98.2,163,52.116184,9.882326
40,Mr.,Grosvenor,Laboissonnière,"60 rue du Faubourg National",TARBES,Midi-Pyrénées,65000,France,GrosvenorLaboissonniere@armyspy.com,05.89.33.28.65,1/25/2000,Visa,4539283650708864,163,2/2018,"2015 smart fortwo",41.5,178,43.299796,0.075872
41,Mr.,Andreas,Theiss,"Alt-Moabit 52",Torgau,"Freistaat Sachsen",04852,Germany,AndreasTheiss@jourrapide.com,"03421 20 08 80",6/22/1992,Visa,4532008584463246,768,8/2017,"2008 Volkswagen Passat",63.8,176,51.549537,12.870619
42,Ms.,Sibyla,Lafond,"78 rue Jean Vilar",BÈGLES,Aquitaine,33130,France,SibylaLafond@armyspy.com,05.77.93.13.75,10/2/1948,Visa,4539957574691104,886,12/2020,"1998 Dodge Durango",76.8,151,44.761961,-0.458617
43,Ms.,Marina,Schäfer,"Boxhagener Str. 6","Hamburg Harvestehude",Hamburg,20144,Germany,MarinaSchafer@cuvox.de,"040 21 29 22",8/7/1978,Visa,4532734632414366,277,7/2019,"1997 Lincoln Mark VIII",70.2,173,53.477977,10.074362
43,Mr.,Christophe,Parrot,"85 Chemin Des Bateliers",ANNECY,Rhône-Alpes,74000,France,ChristopheParrot@jourrapide.com,04.99.01.42.70,10/15/1979,Visa,4556816131008814,990,5/2018,"2006 Porsche 911",64.9,178,45.982927,6.090511
44,Mr.,Thorsten,Eisenberg,"Schaarsteinweg 49",Abensberg,"Freistaat Bayern",93320,Germany,ThorstenEisenberg@teleworm.us,"09441 75 89 44",5/31/1990,MasterCard,5461865395722348,976,9/2019,"2003 Bentley Continental GT",70.5,189,48.720856,11.859421
45,Mr.,Dirk,Schwab,"Hallesches Ufer 78",Simmozheim,Baden-Württemberg,75397,Germany,DirkSchwab@teleworm.us,"07033 70 46 15",9/23/1965,MasterCard,5185625071189146,014,5/2019,"2014 Cadillac Escalade",75.1,188,48.784916,8.8493
46,Mrs.,Christina,Reinhard,"Neuer Jungfernstieg 12",Schönau,"Freistaat Bayern",84337,Germany,ChristinaReinhard@armyspy.com,"08723 43 76 24",6/1/1963,Visa,4916037875846526,343,8/2019,"2005 Aston Martin V8 Vantage",67.0,161,48.56281,12.793958
46,Mrs.,Lotye,Goudreau,"61 Quai des Belges",MARSEILLE,"Provence-Alpes-Côte d'Azur",13016,France,LotyeGoudreau@dayrep.com,04.97.93.50.27,7/5/1977,MasterCard,5188094839080823,185,2/2019,"1999 Daewoo Prince",76.4,161,43.373959,5.299056
50,Mrs.,Melanie,Bergmann,"Hardenbergstraße 21",Ludwigswinkel,Rheinland-Pfalz,66996,Germany,MelanieBergmann@teleworm.us,"06393 39 27 26",11/21/1999,MasterCard,5255185263019911,994,3/2020,"2004 Subaru G3X",60.8,171,49.122406,7.754498
51,Ms.,Karin,Reinhardt,"Hermannstrasse 59",Eimsheim,Rheinland-Pfalz,55278,Germany,KarinReinhardt@jourrapide.com,"06249 63 18 69",2/28/1958,MasterCard,5267722098442748,034,6/2017,"2009 Saturn Sky",63.9,166,49.846376,8.269446
52,Mrs.,Simone,Aachen,"Ufnau Strasse 37",Kellmünz,"Freistaat Bayern",89293,Germany,SimoneAachen@cuvox.de,"08337 38 67 25",10/10/1991,MasterCard,5146996776433792,937,4/2021,"2004 Mercedes-Benz C",78.7,161,48.054856,10.135293
53,Dr.,Martin,Metzger,"Lützowplatz 18",Pluwig,Rheinland-Pfalz,54316,Germany,MartinMetzger@armyspy.com,"06588 58 04 88",6/7/1931,Visa,4485485906222012,587,2/2018,"2007 Lexus GS",79.3,171,49.752074,6.649791
54,Mrs.,Leah,Waechter,"Grosse Praesidenten Str. 74",Otterberg,Rheinland-Pfalz,67697,Germany,LeahWaechter@cuvox.de,"06301 18 81 11",4/6/1994,Visa,4539752414847341,133,5/2021,"1995 Toyota Carina",94.4,155,49.57368,7.861142
54,Mr.,Chandler,Rocheleau,"37 Rue Frédéric Chopin",VERSAILLES,Île-de-France,78000,France,ChandlerRocheleau@dayrep.com,01.03.53.56.75,5/29/1932,MasterCard,5113487485327326,797,3/2019,"1998 Nissan Stagea",89.3,176,48.700782,2.101682
55,Mr.,Léon,Briard,"52 rue Bonneterie",MIRAMAS,"Provence-Alpes-Côte d'Azur",13140,France,LeonBriard@rhyta.com,04.87.49.58.38,12/23/1937,Visa,4532812512460210,286,4/2018,"2003 Dodge Dakota",96.0,163,43.497993,5.019732
56,Mr.,Langley,Devost,"26 rue Sadi Carnot",AUBERVILLIERS,Île-de-France,93300,France,LangleyDevost@superrito.com,01.10.88.08.26,12/16/1960,MasterCard,5215237655034377,167,12/2017,"1996 TVR Griffith",113.3,181,48.904144,2.479103
57,Mr.,Florian,Sommer,"Borstelmannsweg 77",Lautertal,"Freistaat Bayern",96485,Germany,FlorianSommer@armyspy.com,"09561 59 27 09",7/12/1964,Visa,4916640196085276,736,1/2017,"2008 Toyota Yaris",98.8,166,50.306162,10.896119
59,Mr.,David,Wagner,"Schoenebergerstrasse 64",Ellefeld,"Freistaat Sachsen",08234,Germany,DavidWagner@gustr.com,"03744 22 91 69",10/30/1970,Visa,4539966078558933,971,7/2019,"2002 Audi A6",104.8,168,50.435587,12.411523
59,Mrs.,Searlait,LaGrande,"48 rue du Gue Jacquet",CHÂTENAY-MALABRY,Île-de-France,92290,France,SearlaitLaGrande@dayrep.com,01.80.58.34.23,5/18/1997,Visa,4929369697068343,095,5/2017,"2001 Suzuki Lapin",48.3,168,48.844724,2.217105
60,Mrs.,Michelle,Hahn,"Anhalter Strasse 11",Schönenberg-Kübelberg,Rheinland-Pfalz,66901,Germany,MichelleHahn@jourrapide.com,"06373 47 35 14",7/20/1989,Visa,4485781251219490,637,4/2017,"2005 Jaguar XJR",84.7,155,49.438157,7.346066
60,Mrs.,Anastasie,Doyon,"70 Chemin Des Bateliers",ANGLET,Aquitaine,64600,France,AnastasieDoyon@jourrapide.com,05.72.19.95.78,11/10/1959,Visa,4716755514768874,598,8/2019,"2003 Skoda Superb",82.6,155,43.455631,-1.483818
64,Ms.,Camille,Desruisseaux,"78 rue des Coudriers",MURET,Midi-Pyrénées,31600,France,CamilleDesruisseaux@dayrep.com,05.27.29.53.07,7/13/1961,MasterCard,5112633787960469,891,2/2019,"2001 Peugeot 106",60.4,166,43.414457,1.404421
66,Ms.,Jana,Seiler,"Pohlstrasse 10",Osloß,Niedersachsen,38557,Germany,JanaSeiler@superrito.com,"05362 83 38 19",8/8/1949,MasterCard,5339069856577651,696,4/2020,"2005 Dodge Charger",94.1,151,52.541401,10.60465
67,Mr.,Patrick,Schroder,"Brandenburgische Str. 15",Güglingen,Baden-Württemberg,74363,Germany,PatrickSchroder@fleckens.hu,"07135 99 29 30",5/10/1943,Visa,4539386653388285,472,7/2018,"2003 Kia Shuma",67.8,171,49.051093,9.061677
68,Mr.,Steffen,Dresner,"Fontenay 30",Kronach,"Freistaat Bayern",96303,Germany,SteffenDresner@rhyta.com,"09261 29 18 08",6/20/1934,Visa,4716863987909247,889,9/2021,"2004 Nissan Sentra",98.0,178,50.175701,11.413937
69,Mr.,Ulrich,Hertz,"Schönhauser Allee 98","Villingen-Schwenningen Weilersbach",Baden-Württemberg,78052,Germany,UlrichHertz@jourrapide.com,"07721 34 82 79",11/2/1945,Visa,4539862971943639,244,3/2018,"2004 GMC Safari",80.5,184,48.07663,8.395017
70,Mrs.,Jennifer,Beyer,"Bayreuther Strasse 23","Reutlingen Voller Brunnen",Baden-Württemberg,72766,Germany,JenniferBeyer@armyspy.com,"071 49 94 99",1/20/1965,MasterCard,5155332773763759,580,5/2020,"2000 Mercury Cougar",79.5,171,48.415816,9.185438
71,Mr.,Swen,Drescher,"Anhalter Strasse 6",Bechhofen,"Freistaat Bayern",91572,Germany,SwenDrescher@teleworm.us,"06372 49 92 41",5/1/1972,Visa,4716631133227032,507,8/2017,"1994 Lancia Delta",96.4,179,49.147494,10.482596
71,Mrs.,Robinette,Chalut,"29 boulevard Albin Durand",CHAMBÉRY,Rhône-Alpes,73000,France,RobinetteChalut@dayrep.com,04.17.15.97.35,3/24/1976,Visa,4916221042024569,520,2/2020,"1993 Audi Coupe",62.8,171,45.522345,5.933727
72,Mrs.,Erembourg,Lapresse,"24 boulevard Albin Durand",CHAMBÉRY,Rhône-Alpes,73000,France,ErembourgLapresse@jourrapide.com,04.55.71.51.77,11/20/1954,Visa,4556733778964797,165,10/2021,"2010 Opel Combo",69.1,168,45.59161,5.972751
73,Mr.,Robert,Nadeau,"70 rue Sadi Carnot",AURILLAC,Auvergne,15000,France,RobertNadeau@fleckens.hu,04.32.43.88.06,4/1/1987,MasterCard,5286049245540530,722,8/2020,"2005 Toyota Allion",109.8,186,44.832979,2.464307
75,Mr.,Benoît,Rouze,"67 rue Banaudon",LYON,Rhône-Alpes,69009,France,BenoitRouze@cuvox.de,04.39.85.84.88,3/20/1996,MasterCard,5358779337673558,802,8/2021,"2007 Volkswagen Kombi",63.2,186,45.717291,4.80824
76,Mr.,Max,Schuhmacher,"Neuer Jungfernstieg 25",Frontenhausen,"Freistaat Bayern",84156,Germany,MaxSchuhmacher@rhyta.com,"08732 25 78 02",10/11/1937,Visa,4485306669705193,131,3/2018,"2000 Alfa Romeo 156",82.8,178,48.46972,12.617115
80,Ms.,Julia,Lemann,"Luckenwalder Strasse 1",Westerholt,Niedersachsen,26556,Germany,JuliaLemann@fleckens.hu,"04975 13 30 51",9/30/1930,MasterCard,5428820363257415,634,12/2020,"2008 Subaru B9 Tribeca",86.6,158,53.598108,7.520877
81,Mr.,Dominik,Schultz,"Lützowplatz 76",Gerolstein,Rheinland-Pfalz,54568,Germany,DominikSchultz@teleworm.us,"06591 97 54 09",4/14/1970,Visa,4916796344961790,206,6/2021,"2001 Honda Stream",75.8,176,50.249938,6.69365
82,Mr.,Stephan,Gaertner,"Jenaer Strasse 65",Essen,Nordrhein-Westfalen,45130,Germany,StephanGaertner@rhyta.com,"0201 28 09 34",6/19/1965,MasterCard,5338047239264263,959,1/2018,"1999 Panoz Esperante",109.3,183,51.455838,6.958952
84,Mr.,Jonas,Jager,"Eichendorffstr. 37",Wolpertswende,Baden-Württemberg,88284,Germany,JonasJager@armyspy.com,"07502 47 04 60",11/22/1994,MasterCard,5443457177243553,086,9/2018,"2001 Isuzu ZXS",73.6,188,47.99619,9.545694
84,Mr.,Ogier,Cailot,"94 rue Goya","LE MANS","Pays de la Loire",72100,France,OgierCailot@gustr.com,02.25.37.14.94,5/12/1992,Visa,4485489975795122,258,6/2017,"2010 Nissan Murano",72.2,171,48.055267,0.102202
85,Mr.,William,Jardine,"64 rue de Geneve",ALFORTVILLE,Île-de-France,94140,France,WilliamJardine@fleckens.hu,01.11.80.29.95,11/15/1999,MasterCard,5329146051955940,938,6/2019,"2010 Hyundai Terracan",64.9,171,48.83362,2.406083
87,Mr.,Théodore,Fortier,"26 rue Ernest Renan",CHOLET,"Pays de la Loire",49300,France,TheodoreFortier@teleworm.us,02.40.64.86.14,5/10/1988,Visa,4916235717437310,203,7/2018,"1998 Morgan Plus 4",61.5,173,47.081064,-0.813633
88,Mr.,Chapin,Paiement,"3 rue du Château",SAINT-GERMAIN-EN-LAYE,Île-de-France,78100,France,ChapinPaiement@rhyta.com,01.49.08.79.43,5/22/1974,Visa,4716490260508072,122,7/2020,"2014 BMW X6",65.9,171,48.830885,2.118898
90,Mrs.,Villette,Lemieux,"35 Chemin Des Bateliers",ANGOULÊME,Poitou-Charentes,16000,France,VilletteLemieux@armyspy.com,05.86.49.47.45,1/8/1944,MasterCard,5394134411954878,035,4/2017,"2010 Ford Falcon",58.2,155,45.74507,0.097601
91,Ms.,Sarah,Fuerst,"Rohrdamm 19",Eicklingen,Niedersachsen,29358,Germany,SarahFuerst@rhyta.com,"05144 37 28 00",2/24/1954,Visa,4916067806329300,059,7/2021,"2005 McLaren MP4",83.4,171,52.477143,10.174794
91,Mr.,Merlin,Massé,"65 rue du Président Roosevelt",SAUMUR,"Pays de la Loire",49400,France,MerlinMasse@einrot.com,02.38.37.90.41,5/26/1960,Visa,4929109233184836,438,11/2020,"2011 Fiat 500",86.5,183,47.115926,-0.097201
93,Mrs.,Ute,Glockner,"Alter Wall 77",Karsbach,"Freistaat Bayern",97783,Germany,UteGlockner@armyspy.com,"09358 46 42 73",9/20/1947,MasterCard,5509942284577945,867,11/2019,"2001 Subaru Forester",99.2,166,50.072762,9.695558
93,Mr.,Mayhew,Routhier,"44 Chemin des Bateliers",AIX-LES-BAINS,Rhône-Alpes,73100,France,MayhewRouthier@jourrapide.com,04.26.41.00.06,1/4/1942,Visa,4556727724839681,072,5/2021,"2011 Honda Fit",81.9,179,45.653841,5.864571
94,Ms.,Jennifer,Herzog,"Leopoldstraße 91","Berlin Buckow",Berlin,12349,Germany,JenniferHerzog@armyspy.com,"030 65 59 34",4/11/1991,Visa,4916500163065828,946,3/2021,"2005 Ford Freestar",57.8,161,52.476756,13.333118
95,Ms.,Marina,Freud,"Prenzlauer Allee 42",Leipzig,"Freistaat Sachsen",04181,Germany,MarinaFreud@einrot.com,"0341 97 60 83",6/13/1932,Visa,4556928976797912,816,1/2021,"1998 Saab 900i",50.1,168,51.406655,12.277603
95,Mr.,Hardouin,Rouze,"37 rue Gontier-Patin",AGEN,Aquitaine,47000,France,HardouinRouze@superrito.com,05.59.90.25.25,9/7/1969,Visa,4929632350945796,563,7/2017,"1992 Oldsmobile 88",79.9,188,44.123034,0.678465
96,Mrs.,Klaudia,Peters,"Hermannstrasse 61",Speyer,Rheinland-Pfalz,67346,Germany,KlaudiaPeters@cuvox.de,"06232 35 04 70",7/27/1993,MasterCard,5497845242942636,322,8/2019,"2009 Chrysler 300",49.1,161,49.389803,8.491949
97,Mr.,Burnell,Perreault,"54 Place de la Gare",COLOMBES,Île-de-France,92700,France,BurnellPerreault@jourrapide.com,01.80.84.41.78,8/19/1980,MasterCard,5337063851547860,123,11/2017,"2005 Lincoln Navigator",91.6,171,49.007752,2.175688
98,Mrs.,Sophie,Ostermann,"Rhinstrasse 31",München,"Freistaat Bayern",80914,Germany,SophieOstermann@armyspy.com,"089 93 87 10",7/8/1993,Visa,4556974960910830,426,8/2020,"2010 Volkswagen Scirocco",98.7,171,48.134497,11.625201
98,Mrs.,Gabrielle,Poisson,"64 Rue Joseph Vernet",BAIE-MAHAULT,Guadeloupe,97122,France,GabriellePoisson@armyspy.com,05.78.68.37.63,2/24/1937,MasterCard,5122613876919244,863,12/2018,"2007 BMW M6",85.2,168,44.020143,1.043668
99,Mr.,Thorsten,Feierabend,"Leipziger Strasse 88","Trier Mariahof",Rheinland-Pfalz,54296,Germany,ThorstenFeierabend@armyspy.com,"0651 35 32 98",11/7/1962,MasterCard,5267565420805078,748,9/2020,"1998 Honda Legend",102.4,168,49.671436,6.668978
101,Ms.,Martina,Muller,"Kurfuerstendamm 63",Ismaning,"Freistaat Bayern",85733,Germany,MartinaMuller@rhyta.com,"089 46 12 18",4/3/1971,Visa,4556358524996180,158,4/2017,"2003 Acura MDX",73.6,173,48.278598,11.575281
101,Mr.,David,Caisse,"11 Quai des Belges",MEAUX,Île-de-France,77100,France,DavidCaisse@cuvox.de,01.31.17.79.72,2/9/1973,Visa,4539257074122134,654,6/2019,"1992 Alpina B 12",106.1,173,49.009475,2.804967
102,Mr.,Tom,Brauer,"Lietzenburger Strasse 63",Kierspe,Nordrhein-Westfalen,58566,Germany,TomBrauer@gustr.com,"02269 45 17 93",10/26/1962,Visa,4929724032530920,095,11/2019,"2004 Noble M12",65.4,184,51.087691,7.531305
102,Mr.,Oliver,Labrie,"46 rue de l'Epeule",ROUBAIX,Nord-Pas-de-Calais,59100,France,OliverLabrie@fleckens.hu,03.68.99.96.54,5/12/1997,Visa,4532558736592599,201,4/2018,"2015 Lexus LS 600h L",78.6,189,50.623892,3.242658
104,Dr.,Tim,Rothschild,"Waldowstr. 53",Tegernsee,"Freistaat Bayern",83681,Germany,TimRothschild@armyspy.com,"08022 83 19 04",1/28/1968,Visa,4532862174614489,616,11/2021,"1992 Toyota Lite Ace",80.6,188,47.607237,11.835405
105,Mr.,Sebastian,Beich,"Grolmanstraße 99","Bremen Kattenesch","Freie Hansestadt Bremen",28277,Germany,SebastianBeich@teleworm.us,"0421 92 01 50",6/13/1952,MasterCard,5155328348094050,050,6/2020,"2012 Dodge Avenger",69.6,171,53.195039,8.778653
107,Ms.,Sara,Barth,"Alsterkrugchaussee 77",Schwabach,"Freistaat Bayern",91108,Germany,SaraBarth@rhyta.com,"09122 76 81 77",2/26/1992,MasterCard,5378583181165000,505,12/2017,"1997 GMC Sonoma",73.5,173,49.248071,10.978344
108,Mrs.,Juliane,Osterhagen,"Joachimstaler Str. 95",Braunshorn,Rheinland-Pfalz,56288,Germany,JulianeOsterhagen@jourrapide.com,"06762 62 72 33",6/14/1961,MasterCard,5420591883014051,960,11/2018,"2012 Infiniti G25",68.7,158,50.056006,7.555301
111,Ms.,Sophie,Pelchat,"57 rue de l'Aigle","LA ROCHELLE",Poitou-Charentes,17000,France,SophiePelchat@jourrapide.com,05.72.11.51.70,8/16/1951,Visa,4716782912802410,462,8/2020,"2011 Nissan 370Z",62.3,166,46.079222,-1.072354
112,Dr.,Andrea,Pfeifer,"Luebeckertordamm 31",Allersberg,"Freistaat Bayern",90581,Germany,AndreaPfeifer@jourrapide.com,"09174 87 88 08",11/20/1944,Visa,4929470384299355,752,8/2020,"2011 Ford Explorer",79.5,163,49.255231,11.196013
112,Mrs.,Bernadette,Ricard,"70 Place Napoléon",LANESTER,Bretagne,56600,France,BernadetteRicard@cuvox.de,02.02.78.84.64,8/30/1935,Visa,4929924150438530,385,11/2018,"2012 Nissan Navara",68.9,150,47.778604,-3.33387
113,Mr.,Courtland,Beauchesne,"78 avenue de Provence",VALLAURIS,"Provence-Alpes-Côte d'Azur",06220,France,CourtlandBeauchesne@fleckens.hu,04.22.08.27.99,5/11/1942,MasterCard,5456807812049050,091,2/2019,"1999 Lamborghini Diablo",98.3,181,43.658042,7.144749
114,Mrs.,Voleta,Langlais,"99 rue Saint Germain",GENNEVILLIERS,Île-de-France,92230,France,VoletaLanglais@cuvox.de,01.73.66.41.51,10/3/1961,Visa,4532967045535258,697,3/2017,"2014 Jeep Patriot",61.2,161,48.860751,2.3857
115,Mr.,René,Furst,"Waßmannsdorfer Chaussee 44",Hamburg,Schleswig-Holstein,22880,Germany,ReneFurst@superrito.com,"040 67 87 55",8/2/1993,Visa,4556818377724401,461,1/2019,"2005 Lexus SC",59.5,171,53.558273,9.729943
115,Mr.,Garland,Vertefeuille,"66 Avenue des Pr'es",MONTMORENCY,Île-de-France,95160,France,GarlandVertefeuille@rhyta.com,01.80.35.56.73,7/2/1980,MasterCard,5193730702957844,811,6/2019,"2004 Acura RSX",101.7,188,48.90292,2.409627
117,Mr.,Jan,Beckenbauer,"Flughafenstrasse 66",Neualbenreuth,"Freistaat Bayern",95698,Germany,JanBeckenbauer@armyspy.com,"09638 70 98 33",4/25/1972,Visa,4716845440032709,492,1/2019,"1996 Innocenti Mille",89.1,184,49.971861,12.387908
119,Mr.,Lucas,Mailhot,"84 rue Charles Corbeau",FLEURY-LES-AUBRAIS,Centre,45400,France,LucasMailhot@rhyta.com,02.44.28.32.05,6/12/1971,Visa,4532608584411341,299,10/2018,"2007 Opel GT",84.0,184,47.917918,1.820643
120,Mr.,Christophe,Beaupré,"12 rue Victor Hugo",CONFLANS-SAINTE-HONORINE,Île-de-France,78700,France,ChristopheBeaupre@fleckens.hu,01.13.22.43.97,4/14/1962,MasterCard,5205478147787345,180,11/2020,"1997 Alpina B 12",93.6,183,48.931834,2.130459
121,Mr.,Normand,Étoile,"30 Rue du Limas",BEAUNE,Bourgogne,21200,France,NormandEtoile@gustr.com,03.23.75.22.04,5/26/1950,MasterCard,5341941240791477,325,8/2019,"1998 Skoda Octavia",68.8,178,47.049831,5.002085
122,Mr.,Daniel,Schmidt,"Straße der Pariser Kommune 32",Bonn,Nordrhein-Westfalen,53117,Germany,DanielSchmidt@armyspy.com,"0228 49 05 00",6/21/1972,MasterCard,5207558593287862,397,6/2019,"2001 Volkswagen Golf",74.8,184,50.780931,7.0759
123,Mr.,Thomas,Reiniger,"Heiligengeistbrücke 93",Heidenheim,"Freistaat Bayern",91718,Germany,ThomasReiniger@fleckens.hu,"09833 96 71 62",11/4/1964,Visa,4929922730038606,587,8/2017,"2012 Honda Jazz",103.1,179,49.099584,10.849508
123,Mr.,Talon,Cloutier,"58 rue des Chaligny",NICE,"Provence-Alpes-Côte d'Azur",06100,France,TalonCloutier@armyspy.com,04.87.75.21.78,5/20/1963,MasterCard,5286863826050069,654,8/2017,"2001 Lincoln LS",114.7,181,43.625882,7.34958
124,Mrs.,Anja,Weber,"Jenaer Strasse 35","Wuppertal Elberfeld",Nordrhein-Westfalen,42109,Germany,AnjaWeber@einrot.com,"0202 15 59 77",8/2/1930,MasterCard,5201381200152528,442,3/2017,"2011 Ford Ranger",83.6,166,51.313763,7.112281
125,Mr.,Sebastian,Bar,"Billwerder Neuer Deich 20",Leupoldsgrün,"Freistaat Bayern",95191,Germany,SebastianBar@superrito.com,"09280 75 13 08",8/29/1992,Visa,4916969479120884,647,10/2021,"1992 Peugeot 605",99.0,188,50.220453,11.869284
125,Ms.,Aubrey,Aupry,"9 rue Charles Corbeau",ÉVRY,Île-de-France,91000,France,AubreyAupry@jourrapide.com,01.40.94.17.94,2/23/1975,MasterCard,5197886228746743,841,12/2017,"2004 Lotus Esprit",77.6,156,48.587359,2.36122
126,Ms.,Mandy,Fuchs,"Inge Beisheim Platz 6",Elmshorn,Schleswig-Holstein,25337,Germany,MandyFuchs@fleckens.hu,"04121 51 57 14",6/1/1943,MasterCard,5379402778004267,331,11/2021,"2004 Volkswagen Golf",65.7,171,53.822603,9.745923
129,Mrs.,Villette,Cuillerier,"10 rue du Fossé des Tanneurs",TOULON,"Provence-Alpes-Côte d'Azur",83100,France,VilletteCuillerier@fleckens.hu,04.91.55.72.61,9/10/1988,Visa,4916185879989360,099,12/2020,"1999 Fiat Multipla",84.5,168,43.042886,5.852327
130,Mrs.,Sabine,Beaulé,"6 Rue St Ferréol",MEUDON-LA-FORÊT,Île-de-France,92360,France,SabineBeaule@fleckens.hu,01.84.35.88.57,1/24/1980,MasterCard,5239589186841742,486,11/2017,"2002 Volkswagen Microbus",92.8,156,48.727627,2.164276
131,Mr.,Harbin,Clavet,"95 Chemin Des Bateliers",ANNECY,Rhône-Alpes,74000,France,HarbinClavet@einrot.com,04.84.21.38.93,1/25/1976,MasterCard,5197543185263226,557,12/2020,"2009 BMW X5",71.6,188,45.984687,6.142465
132,Mr.,Granville,Lapresse,"17 Faubourg Saint Honoré",PARIS,Île-de-France,75116,France,GranvilleLapresse@teleworm.us,01.98.54.12.68,9/17/1999,Visa,4916565969486866,421,6/2018,"2004 Lincoln Mark X",78.6,161,48.861731,2.362002
134,Mrs.,Andrea,Keller,"Alt-Moabit 34",Rathenow,Brandenburg,14704,Germany,AndreaKeller@armyspy.com,"03385 25 03 35",9/23/1971,MasterCard,5539450297263929,781,9/2017,"2002 Mitsubishi Montero",73.2,156,52.543236,12.293912
134,Mr.,Julien,Ménard,"15 cours Franklin Roosevelt",MARSEILLE,"Provence-Alpes-Côte d'Azur",13009,France,JulienMenard@einrot.com,04.70.76.55.52,7/2/1991,Visa,4485941836714742,257,5/2018,"1999 Buick Park Avenue",66.1,181,43.240521,5.403668
135,Mr.,Auriville,Ayot,"2 rue des Soeurs","LA GARDE","Provence-Alpes-Côte d'Azur",83130,France,AurivilleAyot@einrot.com,04.48.01.79.27,3/27/1970,MasterCard,5255260478912430,983,5/2020,"2001 BMW 530",78.4,179,43.047074,5.991755
136,Mr.,Andreas,Mayer,"Am Borsigturm 99","Neuss Furth-Mitte",Nordrhein-Westfalen,41462,Germany,AndreasMayer@superrito.com,"02137 10 14 89",3/24/1969,Visa,4916719810520056,842,8/2021,"2005 Suzuki X2",70.9,188,51.129172,6.61416
137,Ms.,Melisande,Deslauriers,"72 rue du Château",SAINT-HERBLAIN,"Pays de la Loire",44800,France,MelisandeDeslauriers@armyspy.com,02.25.83.99.76,3/5/1968,Visa,4716866573047793,425,8/2019,"2006 Suzuki XL7",100.7,158,47.159346,-1.718168
139,Mr.,Jacques,Harquin,"1 rue Cazade",DREUX,Centre,28100,France,JacquesHarquin@einrot.com,02.22.44.43.30,7/23/1980,Visa,4532662026039269,323,5/2020,"2008 BMW M5",64.5,188,48.766018,1.448732
140,Mrs.,Delmare,Leclerc,"9 rue de Penthièvre",PRIVAS,Rhône-Alpes,07000,France,DelmareLeclerc@armyspy.com,04.93.94.47.07,7/28/1938,Visa,4716317290958391,661,12/2018,"1997 Oldsmobile Bravada",58.4,168,44.710318,4.500088
144,Mrs.,Juliette,Desnoyers,"35 Avenue des Pr'es",MONTPELLIER,Languedoc-Roussillon,34000,France,JulietteDesnoyers@superrito.com,04.45.80.61.08,12/29/1948,Visa,4916872300084354,240,2/2020,"2009 Mercedes-Benz B",62.0,166,43.649875,3.807237
145,Mr.,Stephan,Nussbaum,"Kieler Strasse 81",Garching,"Freistaat Bayern",84515,Germany,StephanNussbaum@teleworm.us,"08623 14 86 93",8/9/1990,MasterCard,5328618141614951,324,1/2021,"2008 Jeep Grand Cherokee",84.8,176,48.28267,11.617302
146,Mrs.,Sophie,Bergmann,"Kastanienallee 89",Seefeld,"Freistaat Bayern",82225,Germany,SophieBergmann@einrot.com,"04872 44 41 12",6/11/1936,MasterCard,5334452871498316,622,9/2019,"2001 Opel Omega",59.7,151,48.071312,11.213379
146,Mr.,Courtland,Neufville,"37 rue du Président Roosevelt",SAUMUR,"Pays de la Loire",49400,France,CourtlandNeufville@armyspy.com,02.31.62.39.19,5/20/1998,MasterCard,5164240855884139,527,7/2020,"1993 Audi Coupe",80.7,186,47.124284,-0.169397
147,Mr.,Beltane,Martineau,"65 Place Charles de Gaulle",VILLENEUVE-D'ASCQ,Nord-Pas-de-Calais,59650,France,BeltaneMartineau@teleworm.us,03.69.73.38.09,4/20/1971,Visa,4916971237315996,116,6/2017,"1997 Seat Arosa",83.9,179,50.669729,3.150012
149,Mrs.,Jennifer,Jaeger,"Karl-Liebknecht-Strasse 88",Westerwalsede,Niedersachsen,27386,Germany,JenniferJaeger@dayrep.com,"04269 34 87 56",7/26/1972,Visa,4929905452888431,960,10/2019,"2008 Toyota Celica",95.7,156,53.162713,9.526407
151,Mrs.,Johanna,Freytag,"Gotzkowskystrasse 75",Roes,Rheinland-Pfalz,56754,Germany,JohannaFreytag@armyspy.com,"02672 65 05 71",12/17/1967,Visa,4916031243261377,604,11/2019,"1995 Ford Aerostar",70.6,158,50.123452,7.216915
152,Ms.,Brunella,Bourgeau,"9 Boulevard de Normandie",FONTAINE,Rhône-Alpes,38600,France,BrunellaBourgeau@superrito.com,04.46.06.16.28,11/6/1957,MasterCard,5232944855668776,272,2/2018,"2011 Nissan X-Trail",81.5,158,45.191127,5.775952
153,Mr.,Robert,Keller,"Lange Strasse 91",München,"Freistaat Bayern",81706,Germany,RobertKeller@cuvox.de,"089 77 64 26",4/3/1961,MasterCard,5501771615090460,208,4/2020,"2000 Saturn LS",77.5,186,48.236588,11.657885
153,Mr.,Dexter,Benoit,"11 Rue du Limas",BASTIA,Corse,20600,France,DexterBenoit@rhyta.com,04.12.80.55.16,5/15/1986,Visa,4929141387554084,280,5/2017,"2015 Honda Pilot",87.4,171,42.746926,9.420977
154,Mr.,Vachel,Margand,"39 rue Marie de Médicis",BIARRITZ,Aquitaine,64200,France,VachelMargand@dayrep.com,05.36.60.48.32,12/13/1954,Visa,4929921031841643,750,6/2019,"2011 Peugeot 1007",84.8,173,43.43086,-1.521389
156,Mr.,Lukas,Kluge,"Kurfürstenstraße 40",Gingen,Baden-Württemberg,73333,Germany,LukasKluge@jourrapide.com,"07162 12 74 45",4/24/1996,MasterCard,5457264040938010,102,10/2018,"1996 SsangYong Korando",54.0,178,48.692953,9.708874
156,Mr.,Bayard,Bazinet,"63 rue Léon Dierx",LISIEUX,Basse-Normandie,14100,France,BayardBazinet@superrito.com,02.39.75.23.28,5/15/1947,Visa,4929730647948076,642,3/2019,"2005 Mitsubishi eK",93.8,183,49.107043,0.130904
159,Mr.,Sebastian,Schmitz,"Potsdamer Platz 59",Walting,"Freistaat Bayern",85137,Germany,SebastianSchmitz@einrot.com,"08421 94 55 41",9/21/1958,Visa,4532884848168726,223,8/2021,"1999 Toyota Corolla",108.5,176,48.872165,11.346231
160,Ms.,Sophia,Schulz,"Gotzkowskystrasse 28",Schmitt,Rheinland-Pfalz,56825,Germany,SophiaSchulz@rhyta.com,"02677 98 92 60",12/22/1931,Visa,4556306434873254,199,6/2019,"2003 Bizzarrini BZ-2001",59.5,150,50.237186,6.993369
160,Mr.,Ferragus,Salmons,"60 Quai des Belges",MASSY,Île-de-France,91300,France,FerragusSalmons@dayrep.com,01.84.35.95.01,11/1/1950,MasterCard,5151306781866394,209,2/2018,"1996 Daewoo Arcadia",90.5,166,48.815624,2.211453
162,Mr.,Peverell,Veilleux,"35 Chemin Challet",LILLE,Nord-Pas-de-Calais,59000,France,PeverellVeilleux@fleckens.hu,03.96.97.52.12,4/26/1945,MasterCard,5238680345170536,585,8/2018,"2007 Mercury Montego",87.0,176,50.729929,2.970582
163,Mr.,Marcel,Amsel,"Rathausstrasse 82",Fürth,"Freistaat Bayern",90717,Germany,MarcelAmsel@teleworm.us,"0911 92 83 30",5/17/1967,Visa,4556832646035192,922,4/2018,"1997 BMW 730",100.5,186,48.600799,12.00472
163,Ms.,Falerina,Duranseau,"75 Place Napoléon",LAON,Picardie,02000,France,FalerinaDuranseau@rhyta.com,03.64.24.23.86,12/26/1965,MasterCard,5374588481723097,466,5/2019,"1997 Jeep Cherokee",51.5,173,49.517476,3.698871
164,Mr.,Arber,Lépicier,"16 Faubourg Saint Honoré",PARIS,Île-de-France,75019,France,ArberLepicier@superrito.com,01.51.94.24.09,6/5/1983,Visa,4716924654770559,159,2/2019,"2010 Volvo V70",72.3,178,48.87696,2.417045
165,Mr.,Michael,Busch,"Rosenstrasse 96",München,"Freistaat Bayern",81634,Germany,MichaelBusch@fleckens.hu,"089 46 50 83",9/8/1977,MasterCard,5438648843522290,172,7/2020,"1997 BMW 316",86.6,183,48.192065,11.603365
166,Ms.,Jennifer,Peters,"Güntzelstrasse 30",Deuselbach,Rheinland-Pfalz,54411,Germany,JenniferPeters@cuvox.de,"06504 43 93 81",3/31/1967,MasterCard,5572387307427847,639,2/2020,"2010 Seat Ibiza",95.7,155,49.717425,7.000027
166,Mrs.,Amitee,Lussier,"55 Rue Roussy",ORLÉANS,Centre,45000,France,AmiteeLussier@fleckens.hu,02.68.80.93.59,8/26/1969,Visa,4916918165527407,624,8/2017,"2009 BMW 535",57.8,166,47.90224,1.807995
167,Mr.,Dominik,Schweizer,"Alter Wall 56",Miltenberg,"Freistaat Bayern",63888,Germany,DominikSchweizer@jourrapide.com,"09371 98 45 39",2/22/1930,MasterCard,5361523090195614,219,2/2020,"1996 Daihatsu Mira",79.0,163,49.673258,9.212216
168,Mr.,Alexander,Eisenhower,"Koenigstrasse 43",Gangloffsömmern,"Freistaat Thüringen",99634,Germany,AlexanderEisenhower@superrito.com,"036376 88 54",6/23/1998,Visa,4539234173797967,550,2/2018,"1993 Venturi Coupe",61.9,183,51.097305,11.005746
169,Ms.,Ursula,Theiss,"Charlottenstrasse 74",Dresden,"Freistaat Sachsen",01257,Germany,UrsulaTheiss@gustr.com,"0351 64 09 35",3/14/1939,Visa,4532347434499319,055,10/2019,"2011 Hyundai Equus",97.8,150,50.97192,13.892458
169,Mr.,Thierry,L'Hiver,"64 rue des Chaligny",NEVERS,Bourgogne,58000,France,ThierryLHiver@teleworm.us,03.00.23.85.63,3/25/1984,MasterCard,5340459354630747,575,11/2018,"2007 Suzuki Swift",72.1,188,47.005151,3.137956
170,Mr.,Chandler,Artois,"43 rue Cazade",DREUX,Centre,28100,France,ChandlerArtois@cuvox.de,02.09.69.29.10,8/20/1970,MasterCard,5417697603877175,066,1/2019,"2011 Volkswagen GTI",92.9,186,48.663655,1.33454
171,Mr.,Marco,Ackermann,"Boxhagener Str. 85","Hamburg Heimfeld",Hamburg,21073,Germany,MarcoAckermann@superrito.com,"040 82 01 09",6/10/1986,MasterCard,5130316180748826,995,10/2018,"2005 Honda Jazz",110.1,179,53.454844,9.937002
175,Mr.,Philipp,Kaestner,"Rosenstrasse 61",München,"Freistaat Bayern",81664,Germany,PhilippKaestner@teleworm.us,"089 44 30 65",3/5/1955,MasterCard,5556935625907021,359,6/2017,"2001 Saturn SC",79.4,178,48.120571,11.57369
175,Mr.,Saville,Simard,"24 rue Petite Fusterie",BOULOGNE-SUR-MER,Nord-Pas-de-Calais,62200,France,SavilleSimard@fleckens.hu,03.82.10.41.56,7/10/1999,Visa,4485016826197610,738,6/2018,"2011 Alfa Romeo Giulietta",71.6,179,50.772442,1.639618
176,Mr.,Paul,Lehrer,"Brandenburgische Str. 80",Löwenstein,Baden-Württemberg,74245,Germany,PaulLehrer@gustr.com,"07130 86 58 38",5/21/1931,Visa,4485553530077969,303,11/2021,"2004 Subaru Baja",85.7,166,49.01816,9.453272
177,Dr.,Karin,Freytag,"Rohrdamm 84","Herford Eickum",Nordrhein-Westfalen,32051,Germany,KarinFreytag@fleckens.hu,"05221 58 68 05",5/10/1996,Visa,4716307622874002,755,7/2020,"2008 Renault Thalia",63.4,158,52.073957,8.702314
178,Mr.,Marco,Ostermann,"Waßmannsdorfer Chaussee 72","Hamburg Altona-Nord",Hamburg,22769,Germany,MarcoOstermann@gustr.com,"040 34 68 04",9/3/1956,Visa,4532820926649286,434,9/2021,"1999 Beijing BJ 2020",89.0,178,53.501675,9.902862
179,Mrs.,Simone,Schröder,"Genslerstraße 84","Berlin Tempelhof",Berlin,10965,Germany,SimoneSchroder@superrito.com,"030 99 49 30",12/30/1962,Visa,4485238546634876,969,9/2017,"2008 Audi R8",66.4,156,52.558297,13.351023
180,Ms.,Patricia,Asselin,"70 Rue Marie De Médicis",CALUIRE-ET-CUIRE,Rhône-Alpes,69300,France,PatriciaAsselin@dayrep.com,04.18.86.67.64,2/11/1964,Visa,4929441382133193,208,4/2021,"1995 Buick Riviera",76.1,155,45.826382,4.76657
181,Mr.,Eric,Zimmermann,"Rudolstaedter Strasse 62",Elsenfeld,"Freistaat Bayern",63818,Germany,EricZimmermann@jourrapide.com,"06022 82 18 22",5/11/1941,Visa,4929200182691317,235,8/2021,"1993 Daihatsu Feroza",91.5,166,49.776624,9.102218
183,Mr.,Pomeroy,Boileau,"63 Rue Bonnet",VOIRON,Rhône-Alpes,38500,France,PomeroyBoileau@einrot.com,04.74.56.07.32,8/10/1931,Visa,4916950211498192,654,2/2019,"2012 Toyota Sienna",67.5,179,45.335474,5.55127
184,Mr.,Isaac,Lafond,"33 rue du Paillle en queue","LES ULIS",Île-de-France,91940,France,IsaacLafond@jourrapide.com,01.77.80.46.50,7/25/1947,Visa,4556333030801455,138,5/2020,"2011 Mercedes-Benz G",95.6,178,48.715598,2.268533
185,Mrs.,Katja,Freitag,"Schönwalder Allee 24",Westfehmarn,Schleswig-Holstein,23770,Germany,KatjaFreitag@rhyta.com,"04372 38 27 52",5/31/1999,Visa,4916492304854775,174,3/2021,"1992 Subaru SVX",46.2,163,54.428896,11.092434
186,Mr.,Steffen,Busch,"Kantstraße 91",Freiberg,Baden-Württemberg,71691,Germany,SteffenBusch@dayrep.com,"03731 68 51 93",12/27/1964,Visa,4929183193402942,110,3/2019,"1997 BMW S3",73.5,181,48.980993,9.105294
186,Mr.,Jérôme,Racine,"16 Avenue Millies Lacroix",EAUBONNE,Île-de-France,95600,France,JeromeRacine@jourrapide.com,01.51.42.23.13,8/7/1994,Visa,4539172733292667,792,12/2020,"1995 McLaren F1 GTR",108.3,168,48.926093,2.232876
187,Mr.,Jörg,Muller,"Alter Wall 3",Miltenberg,"Freistaat Bayern",63885,Germany,JorgMuller@jourrapide.com,"09371 78 60 16",2/19/1960,MasterCard,5222204900098723,274,12/2018,"1992 Toyota Carina",108.5,179,49.608798,9.193537
188,Mr.,Leon,Gärtner,"Leopoldstraße 55","Berlin Dahlem",Berlin,14193,Germany,LeonGartner@einrot.com,"030 32 54 76",2/4/1963,Visa,4485686268584135,385,7/2018,"2010 Tata Indica",104.5,183,52.593533,13.372574
192,Mr.,Iven,Michel,"87 rue du Président Roosevelt",SAUMUR,"Pays de la Loire",49400,France,IvenMichel@superrito.com,02.63.93.78.74,12/15/1939,MasterCard,5138897312950135,249,9/2019,"2009 Ford S-Max",97.9,176,47.191375,-0.004797
193,Ms.,Heike,Shuster,"Pohlstrasse 70",Calberlah,Niedersachsen,38547,Germany,HeikeShuster@superrito.com,"05301 26 86 67",9/16/1956,Visa,4485141962624597,815,2/2020,"2015 Ford Transit Connect",88.3,166,52.449261,10.586927
194,Ms.,Monika,Farber,"Kurfuerstendamm 53",München,"Freistaat Bayern",80032,Germany,MonikaFarber@superrito.com,"089 97 74 16",4/9/1966,Visa,4485619685468939,449,1/2021,"2007 Ford E-250",91.9,171,48.149637,11.681878
194,Mrs.,Melisande,Savoie,"13 rue de la Mare aux Carats",MONTPELLIER,Languedoc-Roussillon,34080,France,MelisandeSavoie@cuvox.de,04.70.10.24.80,4/15/1951,Visa,4485189716224388,184,1/2018,"2011 Cadillac CTS-V",61.5,168,43.651166,3.936602
195,Ms.,Anke,Kohl,"Leipziger Strasse 37",Gießen,Hessen,35392,Germany,AnkeKohl@superrito.com,"0641 48 97 76",4/17/1959,MasterCard,5553405389072951,939,5/2018,"2014 Dodge Avenger",79.5,153,50.650399,8.741774
196,Mr.,Arnou,Bellefeuille,"97 Cours Marechal-Joffre",DÉCINES-CHARPIEU,Rhône-Alpes,69150,France,ArnouBellefeuille@einrot.com,04.66.54.76.19,7/23/1960,MasterCard,5473396593629933,208,7/2021,"2004 Honda Pilot",103.4,171,45.755207,4.968426
197,Ms.,Ancelote,Abril,"45 rue Clement Marot",PIERREFITTE-SUR-SEINE,Île-de-France,93380,France,AnceloteAbril@armyspy.com,01.60.81.79.83,1/8/1961,Visa,4485768796808150,272,1/2020,"2000 Jaguar F-Type",69.3,158,49.057715,2.328229
198,Mr.,Gano,Lacasse,"88 boulevard de Prague",NÎMES,Languedoc-Roussillon,30900,France,GanoLacasse@fleckens.hu,04.95.99.55.44,4/5/1953,MasterCard,5588030273119624,475,6/2017,"1997 Volvo V40",85.2,179,43.842292,4.309296
199,Ms.,Marjolaine,Tougas,"43 rue du Paillle en queue","LES ULIS",Île-de-France,91940,France,MarjolaineTougas@cuvox.de,01.25.09.74.57,7/30/1961,Visa,4556999506739211,595,1/2020,"2012 BMW 320",76.4,153,48.73007,2.083698
200,Mrs.,Katja,Kohler,"Pasewalker Straße 72","Pforzheim Nordstadt",Baden-Württemberg,75181,Germany,KatjaKohler@armyspy.com,"07231 43 05 77",7/13/1955,Visa,4485294673577826,395,1/2021,"2008 Dodge Viper",63.0,168,48.947193,8.729852
200,Mr.,Bevis,Gaillou,"57 rue Michel Ange","LE HAVRE",Haute-Normandie,76620,France,BevisGaillou@armyspy.com,02.41.11.95.31,7/19/1986,Visa,4539253358339601,118,3/2019,"1994 Subaru Impreza",74.7,184,49.545274,0.155792
201,Mr.,Leon,Faber,"Luetzowplatz 24",Esslingen,Rheinland-Pfalz,54636,Germany,LeonFaber@armyspy.com,"06569 70 39 61",2/25/1973,Visa,4716678260561873,582,3/2020,"1992 Mercedes-Benz 500",114.2,176,50.027084,6.376887
202,Mr.,Michael,Furst,"Hardenbergstraße 12",Schauerberg,Rheinland-Pfalz,66919,Germany,MichaelFurst@jourrapide.com,"06375 68 04 12",8/31/1998,Visa,4929648565250699,628,5/2021,"2003 Cadillac CTS",72.7,166,49.309429,7.583268
203,Mrs.,Sophie,Bar,"Paul-Nevermann-Platz 43","Bad Neustadt","Freistaat Bayern",97604,Germany,SophieBar@fleckens.hu,"09771 17 65 71",8/1/1941,MasterCard,5140193061356518,897,9/2020,"2002 Jaguar X400",51.0,163,50.340722,10.212274
204,Dr.,Dorene,Fecteau,"75 rue des Nations Unies",SAINT-CHAMOND,Rhône-Alpes,42400,France,DoreneFecteau@superrito.com,04.29.05.88.27,3/23/1982,MasterCard,5198717281709881,105,2/2019,"1998 Daewoo Prince",73.4,156,45.375007,4.519718
207,Mr.,Marko,Koehler,"Grolmanstraße 65","Bremen Sankt Magnus","Freie Hansestadt Bremen",28757,Germany,MarkoKoehler@jourrapide.com,"0421 96 72 73",10/20/1974,Visa,4556542694918195,272,10/2020,"1995 BMW Dinan",108.5,181,53.035637,8.75258
207,Mrs.,Brice,Cartier,"10 Square de la Couronne",PARIS,Île-de-France,75001,France,BriceCartier@einrot.com,01.73.00.16.01,6/13/1981,MasterCard,5534694969808801,786,10/2018,"1998 Toyota Picnic",76.4,155,48.87964,2.314992
208,Mrs.,Josephe,Garnier,"48 rue Isambard",FRANCONVILLE-LA-GARENNE,Île-de-France,95130,France,JosepheGarnier@rhyta.com,01.31.04.36.34,5/27/1968,MasterCard,5147527873520287,856,7/2019,"1994 Mercury Mystique",70.3,155,49.075918,2.309035
210,Mr.,Aubrey,Bizier,"27 Rue Frédéric Chopin",VERTOU,"Pays de la Loire",44120,France,AubreyBizier@gustr.com,02.34.51.66.18,12/29/1966,MasterCard,5556010530184874,685,8/2021,"2014 Mitsubishi Outlander Sport",78.5,183,47.154376,-1.474534
211,Mr.,Marlon,Chartier,"90 rue Beauvau",MARSEILLE,"Provence-Alpes-Côte d'Azur",13002,France,MarlonChartier@dayrep.com,04.09.94.28.88,3/20/1984,Visa,4556647161128564,584,9/2018,"2005 Toyota Caldina",64.1,171,43.353204,5.36318
213,Ms.,Bernadette,Gaillard,"9 rue de la Hulotais",SAINT-POL-SUR-MER,Nord-Pas-de-Calais,59430,France,BernadetteGaillard@armyspy.com,03.62.21.43.23,10/18/1994,MasterCard,5581238756725885,332,9/2020,"2002 Lexus RX",79.7,155,51.100338,2.280704
215,Ms.,Lea,Pfeffer,"Ruschestrasse 28",Ludwigslust,Mecklenburg-Vorpommern,19281,Germany,LeaPfeffer@superrito.com,"03874 93 32 27",11/30/1936,Visa,4539873064282207,559,8/2020,"1997 Nissan Almera",77.9,151,53.239187,11.448473
215,Mr.,Archard,Masson,"17 rue des six frères Ruellan",SARREGUEMINES,Lorraine,57200,France,ArchardMasson@teleworm.us,03.26.11.59.42,3/15/1971,MasterCard,5134978230009636,954,1/2018,"1998 Mazda Sentia",102.6,188,49.07203,7.218827
216,Mr.,Ralph,Lowe,"Billwerder Neuer Deich 95",Eckersdorf,"Freistaat Bayern",95488,Germany,RalphLowe@armyspy.com,"09271 13 62 24",3/1/1966,Visa,4716333520621675,949,5/2017,"2005 Buick Rainier",100.2,173,49.935058,11.414372
217,Mr.,Marcel,Adler,"Feldstrasse 89","Burg Stargard",Mecklenburg-Vorpommern,17092,Germany,MarcelAdler@dayrep.com,"039603 25 68",8/10/1976,Visa,4929056612732083,740,11/2019,"2003 BMW 645",70.2,178,53.5367,13.332182
217,Mr.,Gaetan,Maheu,"44 rue Goya","LE MÉE-SUR-SEINE",Île-de-France,77350,France,GaetanMaheu@fleckens.hu,01.62.57.19.80,8/13/1933,MasterCard,5520246043587046,719,3/2021,"2004 Suzuki Wagon R+",89.9,163,48.469895,2.647937
219,Mrs.,Lena,Daecher,"Luebecker Strasse 21",Roding,"Freistaat Bayern",93423,Germany,LenaDaecher@teleworm.us,"09469 43 91 42",4/27/1968,MasterCard,5598658698155654,558,5/2021,"2000 Porsche Carrera GT",91.6,173,49.131528,12.452532
221,Mrs.,Anne,Hirsch,"Kantstrasse 18",Nürnberg,"Freistaat Bayern",90243,Germany,AnneHirsch@teleworm.us,"0911 41 03 95",3/6/1950,Visa,4532581522911609,569,10/2018,"1996 Acura SLX",70.2,155,49.4738,11.115128
223,Mr.,Felix,Neudorf,"Genslerstraße 54","Berlin Wartenberg",Berlin,13059,Germany,FelixNeudorf@rhyta.com,"030 43 31 25",12/22/1959,Visa,4485556324225124,089,10/2019,"1998 BMW 316",98.9,171,52.660571,13.58166
223,Ms.,Louise,Laderoute,"42 rue Gustave Eiffel",RILLIEUX-LA-PAPE,Rhône-Alpes,69140,France,LouiseLaderoute@einrot.com,04.46.74.81.51,6/28/1968,MasterCard,5525277325922895,987,1/2018,"2002 Volkswagen 1 Litre",75.8,168,45.787776,4.81881
224,Mrs.,Simone,Fruehauf,"Charlottenstrasse 30",Dresden,"Freistaat Sachsen",01265,Germany,SimoneFruehauf@cuvox.de,"0351 31 23 39",4/25/1937,MasterCard,5520860434297997,857,1/2021,"2006 Toyota RAV4",49.4,168,51.139629,13.79104
224,Ms.,Jeanette,Reault,"88 rue Michel Ange","LE HAVRE",Haute-Normandie,76600,France,JeanetteReault@fleckens.hu,02.35.52.51.84,6/7/1999,MasterCard,5317082418996919,802,7/2017,"2003 Lotus Exige",55.5,150,49.5914,0.070969
225,Mr.,Ranger,Despins,"16 rue Pierre De Coubertin",TOULOUSE,Midi-Pyrénées,31400,France,RangerDespins@dayrep.com,05.88.43.78.36,10/23/1985,Visa,4556418716718626,976,2/2020,"1999 Honda S2000",86.9,189,43.60099,1.403503
226,Mr.,Steffen,Jaeger,"Eschenweg 19",Sonneberg,"Freistaat Thüringen",96509,Germany,SteffenJaeger@cuvox.de,"03675 23 40 42",4/30/1965,MasterCard,5398409542273588,567,9/2021,"2008 Hyundai Accent",112.5,186,50.392592,11.243884
227,Mr.,Mathias,Osterhagen,"Mellingburgredder 99",Erlangen,"Freistaat Bayern",91020,Germany,MathiasOsterhagen@gustr.com,"09131 13 37 36",1/25/1945,MasterCard,5286614649933399,803,5/2019,"2014 Audi RS 7",66.2,181,49.659973,10.978804
227,Dr.,Halette,Grandpré,"1 rue des Chaligny",NICE,"Provence-Alpes-Côte d'Azur",06200,France,HaletteGrandpre@fleckens.hu,04.03.39.65.58,5/21/1937,Visa,4539573456288750,225,6/2020,"2005 Chevrolet Silverado",93.0,150,43.775879,7.261636
229,Mr.,Dexter,Fresne,"56 Rue de Verdun",MONTGERON,Île-de-France,91230,France,DexterFresne@gustr.com,01.01.54.36.21,9/22/1992,Visa,4716150107425134,013,4/2021,"2005 Porsche Carrera GT",59.7,178,48.710211,2.480907
230,Mr.,Patrick,Propst,"Jenaer Strasse 78",Duisburg,Nordrhein-Westfalen,47228,Germany,PatrickPropst@armyspy.com,"0203 54 98 65",9/15/1943,MasterCard,5147196588453554,709,8/2019,"1996 Mazda RX-01",79.5,163,51.483795,6.78092
230,Mr.,Bruce,Davignon,"53 rue des Lacs",HYÈRES,"Provence-Alpes-Côte d'Azur",83400,France,BruceDavignon@fleckens.hu,04.38.67.86.39,9/20/1934,Visa,4556196404284123,614,2/2019,"2006 GMC Sierra",61.2,163,43.02437,6.112818
231,Mr.,Mario,Seiler,"Brandenburgische Straße 86","Berlin Mariendorf",Berlin,12107,Germany,MarioSeiler@armyspy.com,"030 26 35 70",9/20/1970,MasterCard,5380986535034325,618,7/2017,"1998 Daihatsu Mira",115.8,186,52.448227,13.468676
231,Mrs.,Catherine,Loiselle,"80 rue Gouin de Beauchesne",SAINT-PAUL,Guyane,97460,France,CatherineLoiselle@jourrapide.com,02.33.77.41.84,6/29/1971,Visa,4485195833912631,703,3/2021,"1995 Maserati Shamal",71.9,161,43.740057,7.051509
232,Mrs.,Lea,Moench,"Genslerstraße 64","Berlin Schöneberg",Berlin,10783,Germany,LeaMoench@fleckens.hu,"030 45 37 26",4/11/1934,MasterCard,5578888139353014,550,11/2020,"2006 Mercury Milan",91.6,166,52.466677,13.475679
235,Mr.,Philip,Binet,"51 rue du Château",SAINT-HERBLAIN,"Pays de la Loire",44800,France,PhilipBinet@superrito.com,02.21.84.21.74,7/6/1942,MasterCard,5226199657005606,482,12/2021,"1998 Renault Grand Espace",63.7,168,47.128521,-1.646326
236,Mrs.,Prunella,Généreux,"41 Chemin Challet",LIÉVIN,Nord-Pas-de-Calais,62800,France,PrunellaGenereux@cuvox.de,03.25.52.21.17,3/16/1998,Visa,4485832680636414,024,6/2017,"2009 Mercury Milan",51.4,166,50.454568,2.808506
237,Mr.,Marco,Wexler,"Flotowstr. 61",Bernburg,Sachsen-Anhalt,06393,Germany,MarcoWexler@cuvox.de,"03471 49 79 38",3/3/1957,Visa,4532715739934778,887,11/2020,"2002 Ginetta G34",75.3,184,51.752691,11.725399
237,Mr.,Raymond,Ricard,"83 rue La Boétie",PARIS,Île-de-France,75016,France,RaymondRicard@superrito.com,01.34.86.43.19,9/22/1955,Visa,4532944886833241,795,11/2021,"2008 Alfa Romeo 8C Competizione",69.4,176,48.933232,2.210774
238,Mr.,Lucas,Therriault,"72 Rue de Strasbourg",CLERMONT-FERRAND,Auvergne,63100,France,LucasTherriault@teleworm.us,04.25.26.58.09,1/25/1992,MasterCard,5595740428323092,526,6/2017,"2008 Ford Focus",86.4,181,45.859172,3.098651
239,Mr.,Alexander,Grunewald,"Ellmenreichstrasse 91",Kulmbach,"Freistaat Bayern",95302,Germany,AlexanderGrunewald@fleckens.hu,"09221 87 32 23",7/3/1951,MasterCard,5342810337105454,623,3/2020,"2004 Westfield ZEI",76.4,168,50.101949,11.418556
239,Mr.,Gilles,Martin,"55 avenue Jules Ferry",SOTTEVILLE-LÈS-ROUEN,Haute-Normandie,76300,France,GillesMartin@fleckens.hu,02.91.79.84.05,4/12/1973,Visa,4485028807375305,126,6/2017,"1995 Audi S6",80.3,179,49.47832,1.011511
240,Mr.,Neville,Meunier,"94 Chemin Des Bateliers",ANNECY,Rhône-Alpes,74000,France,NevilleMeunier@teleworm.us,04.41.08.12.38,5/12/1949,MasterCard,5259136708553366,380,7/2021,"2005 AC Aceca",88.9,183,45.954056,6.12344
241,Ms.,Melanie,Maurer,"Schaarsteinweg 1",Michelsneukirchen,"Freistaat Bayern",93185,Germany,MelanieMaurer@fleckens.hu,"09462 64 18 78",3/5/1953,Visa,4929046936516858,379,7/2020,"2000 Alfa Romeo Spider",80.0,163,49.100136,12.537952
241,Mrs.,Eglantine,Coudert,"28 place Maurice-Charretier",CHAMPS-SUR-MARNE,Île-de-France,77420,France,EglantineCoudert@gustr.com,01.00.64.50.14,11/27/1973,Visa,4532896485170898,582,9/2018,"2015 Kia K900",87.1,168,48.852962,2.590137
242,Mr.,Jan,Maur,"Knesebeckstrasse 46",Stürzelbach,Rheinland-Pfalz,57614,Germany,JanMaur@armyspy.com,"02681 73 25 70",8/26/1975,MasterCard,5335320622197512,104,3/2020,"1993 Mercury Capri",82.0,173,50.743365,7.723728
244,Mr.,Michel,Racicot,"12 Rue Bonnet",WATTRELOS,Nord-Pas-de-Calais,59150,France,MichelRacicot@einrot.com,03.16.02.14.45,10/27/1964,Visa,4532705074397145,602,3/2018,"1992 Mercedes-Benz 200",106.5,171,50.696499,3.308563
245,Dr.,David,Hofmann,"Bleibtreustrasse 97",Oelde,Nordrhein-Westfalen,59302,Germany,DavidHofmann@einrot.com,"05245 70 09 94",11/27/1971,Visa,4929786890646247,287,7/2020,"1994 Toyota 4Runner",90.3,178,51.723408,8.129354
246,Mr.,Martin,Pabst,"Schaarsteinweg 33",Nabburg,"Freistaat Bayern",92507,Germany,MartinPabst@gustr.com,"09433 13 02 82",1/29/1976,MasterCard,5219618728005039,307,7/2019,"2012 Chrysler 300",87.2,171,49.382297,12.197678
246,Mrs.,Pénélope,Labrosse,"30 rue Saint Germain",GIF-SUR-YVETTE,Île-de-France,91190,France,PenelopeLabrosse@einrot.com,01.16.40.56.58,12/7/1957,Visa,4539561318540088,247,12/2018,"2012 Alpina B7",58.3,158,48.640766,2.1627
247,Ms.,Sandra,Hartmann,"Am Borsigturm 62","Dormagen Straberg",Nordrhein-Westfalen,41542,Germany,SandraHartmann@rhyta.com,"02133 73 20 33",12/16/1934,MasterCard,5189079601850734,399,5/2020,"2007 Fiat Idea",71.2,155,51.028142,6.812677
249,Mr.,Namo,LeBatelier,"24 avenue Jules Ferry",SÈVRES,Île-de-France,92310,France,NamoLeBatelier@einrot.com,01.66.80.88.66,2/27/1931,MasterCard,5193217049196203,234,12/2021,"2003 Infiniti FX",59.3,178,48.86427,2.265497
250,Ms.,Uta,Ebersbacher,"Ruschestrasse 61",Haldensleben,Sachsen-Anhalt,39331,Germany,UtaEbersbacher@fleckens.hu,"03904 18 95 34",3/11/1947,Visa,4539521389767945,391,8/2017,"2004 Buick Terraza",93.2,155,52.318199,11.498313
250,Dr.,Hardouin,Lamare,"12 rue de Raymond Poincaré",NEUILLY-SUR-SEINE,Île-de-France,92200,France,HardouinLamare@teleworm.us,01.18.61.10.11,8/16/1957,Visa,4916778898144130,966,3/2018,"2005 Mini One",102.3,168,48.80068,2.281739
252,Mr.,Carolos,Fontaine,"86 Place de la Madeleine",PARIS,Île-de-France,75011,France,CarolosFontaine@fleckens.hu,01.72.97.35.21,4/12/1953,Visa,4485262409748920,872,6/2019,"2003 Citroen C4",89.7,179,48.763493,2.429985
253,Mr.,Tobias,Neumann,"Alt Reinickendorf 83",Oy-Mittelberg,"Freistaat Bayern",87466,Germany,TobiasNeumann@teleworm.us,"08302 33 34 26",2/10/1942,MasterCard,5138272033532580,102,8/2018,"1992 Jeep Cherokee",105.4,178,47.601868,10.53181
253,Mr.,Éric,Brousseau,"92 boulevard Albin Durand",CERGY,Île-de-France,95000,France,EricBrousseau@jourrapide.com,01.11.97.82.75,5/4/1991,MasterCard,5430252973601988,105,12/2018,"1997 Eagle Vision",100.4,173,48.923073,2.065067
254,Dr.,Franziska,Schwarz,"Rudower Strasse 79",Hallschlag,Rheinland-Pfalz,54611,Germany,FranziskaSchwarz@gustr.com,"06557 47 59 71",1/19/1970,Visa,4539819915269851,541,9/2017,"2001 Nissan Almera",78.4,171,50.322459,6.434005
255,Mr.,Jan,Osterhagen,"Mollstrasse 36",Bodenheim,Rheinland-Pfalz,55294,Germany,JanOsterhagen@cuvox.de,"06135 20 29 35",3/7/1975,Visa,4485949254944493,575,3/2017,"2004 Mitsubishi Verada",65.4,178,49.84052,8.365522
255,Ms.,Zurie,Corbin,"11 rue de Penthièvre",PONTOISE,Île-de-France,95300,France,ZurieCorbin@cuvox.de,03.51.55.00.85,12/2/1945,Visa,4916924764947814,335,3/2020,"2003 Ginetta G34",78.0,158,48.958235,2.02222
257,Dr.,Karolin,Junker,"Charlottenstrasse 76",Erfurt,"Freistaat Thüringen",99004,Germany,KarolinJunker@teleworm.us,"0361 33 59 42",5/26/1952,MasterCard,5102531436917033,348,11/2020,"2010 BMW 335",84.5,161,50.92946,11.06912
258,Mr.,Dieter,Feierabend,"Lützowplatz 18",Hörscheid,Rheinland-Pfalz,54552,Germany,DieterFeierabend@armyspy.com,"06592 84 60 77",9/26/1997,MasterCard,5382107289988701,255,12/2018,"1996 Aston Martin DB7",76.5,173,50.299861,6.830263
260,Mr.,Klaus,Seiler,"Motzstr. 9",Lorch,Baden-Württemberg,73547,Germany,KlausSeiler@einrot.com,"06726 56 22 95",4/5/1994,Visa,4532203792343013,267,11/2020,"2001 Vauxhall Omega",87.5,183,48.788489,9.686794
263,Mr.,Michael,Hertzog,"Mohrenstrasse 86",Altheim,Baden-Württemberg,88499,Germany,MichaelHertzog@teleworm.us,"07371 78 17 30",3/24/1981,Visa,4485707709525360,525,7/2021,"2003 Toyota RAV4",69.8,171,48.257038,9.507456
264,Mr.,Dirk,Finkel,"Billwerder Neuer Deich 62",Hof,"Freistaat Bayern",95016,Germany,DirkFinkel@cuvox.de,"09281 91 79 78",6/5/1962,Visa,4916958082327044,871,5/2019,"2002 Volkswagen 1 Litre",67.0,178,50.246,11.908967
264,Ms.,Brie,Potvin,"50 rue de Geneve",AMIENS,Picardie,80090,France,BriePotvin@cuvox.de,03.59.46.88.75,8/27/1941,Visa,4556147078402780,209,10/2021,"2008 Ferrari 599",76.4,168,49.864585,2.309476
266,Mrs.,Maurelle,Audibert,"65 avenue Jules Ferry",SIX-FOURS-LES-PLAGES,"Provence-Alpes-Côte d'Azur",83140,France,MaurelleAudibert@rhyta.com,04.80.80.72.32,8/25/1995,Visa,4532393577905001,217,11/2018,"1994 Mitsubishi Magna",50.0,163,43.077089,5.848608
267,Dr.,Océane,Lacasse,"48 Rue Roussy",ORLÉANS,Centre,45000,France,OceaneLacasse@gustr.com,02.31.96.17.47,5/24/1955,MasterCard,5465992462544649,426,4/2018,"2014 Toyota Sienna",80.6,156,47.892207,1.811967
269,Mr.,Christian,Herz,"Reeperbahn 91",Ahlbeck,Mecklenburg-Vorpommern,17375,Germany,ChristianHerz@armyspy.com,"038378 91 25",6/14/1957,MasterCard,5557105793348791,501,7/2020,"2000 Fiat Brava",66.6,176,53.67116,14.355957
269,Mr.,Sacripant,Brisette,"94 Boulevard de Normandie",FONTAINE,Rhône-Alpes,38600,France,SacripantBrisette@fleckens.hu,04.45.13.45.03,12/8/1966,MasterCard,5198816769913781,383,12/2019,"2012 Lancia Ypsilon",90.1,176,45.179837,5.741424
270,Mr.,René,Waechter,"Ansbacher Strasse 37",Tellig,Rheinland-Pfalz,56858,Germany,ReneWaechter@jourrapide.com,"06545 20 70 93",10/31/1985,MasterCard,5550512887688635,553,1/2020,"2014 Kia Sorento",64.0,178,50.084753,7.320834
270,Mrs.,Magnolia,Blondlot,"46 Rue Bonnet",VOIRON,Rhône-Alpes,38500,France,MagnoliaBlondlot@jourrapide.com,04.81.64.53.87,2/24/1949,MasterCard,5411869642740997,372,11/2017,"2005 Nissan Maxima",59.8,155,45.311792,5.630493
273,Ms.,Christine,Eichmann,"Eichendorffstr. 51",Wolfegg,Baden-Württemberg,88364,Germany,ChristineEichmann@teleworm.us,"07527 13 47 26",1/3/1974,MasterCard,5390126470302316,116,3/2021,"2014 GMC Sierra 3500HD",89.1,163,47.896779,9.857457
275,Mr.,Erik,Urner,"Karl-Liebknecht-Strasse 91",Kaltenkirchen,Schleswig-Holstein,24561,Germany,ErikUrner@jourrapide.com,"04191 92 51 57",7/25/1983,MasterCard,5114431106500191,073,1/2021,"1999 Chevrolet Prizm",104.2,186,53.89974,9.99657
276,Mrs.,Susanne,Beike,"Alsterkrugchaussee 16",Bissingen,"Freistaat Bayern",86657,Germany,SusanneBeike@gustr.com,"09089 84 81 35",2/20/1966,MasterCard,5256862287039401,873,7/2021,"2014 Cadillac ATS",89.4,163,48.639898,10.559814
276,Mr.,André,Desrosiers,"62 rue du Général Ailleret","LES ABYMES",Guadeloupe,97139,France,AndreDesrosiers@einrot.com,05.52.58.34.85,5/28/1963,Visa,4532695337786988,163,1/2021,"2009 Chevrolet Matiz",65.2,173,47.02094,1.689331
279,Mr.,Jens,Gärtner,"Billwerder Neuer Deich 4",Oberkotzau,"Freistaat Bayern",95140,Germany,JensGartner@teleworm.us,"09286 43 70 73",3/5/1962,Visa,4485064904356781,518,1/2020,"2008 BMW 550",70.9,186,50.237541,11.887105
280,Ms.,Monika,Eberhardt,"Esplanade 66",Neutraubling,"Freistaat Bayern",93069,Germany,MonikaEberhardt@superrito.com,"09401 51 05 46",3/19/1981,MasterCard,5167685103109589,828,2/2020,"2003 Nissan Primera",58.7,168,49.078016,12.165189
280,Mrs.,Marthe,Rivière,"22 rue Marie de Médicis",BLAGNAC,Midi-Pyrénées,31700,France,MartheRiviere@superrito.com,05.53.94.97.83,1/16/1977,MasterCard,5299450509478927,006,3/2020,"2005 Aston Martin Vanquish",71.5,166,43.534316,1.340677
282,Mrs.,Vanessa,Pfeifer,"Budapester Strasse 56",Armstedt,Schleswig-Holstein,24616,Germany,VanessaPfeifer@einrot.com,"04324 77 45 27",3/23/1968,MasterCard,5364430547161974,393,12/2021,"2011 Nissan Cube",57.9,161,54.065566,9.790884
282,Mr.,Searlas,Girard,"15 avenue Voltaire",MALAKOFF,Île-de-France,92240,France,SearlasGirard@jourrapide.com,01.29.89.96.16,10/11/1987,Visa,4532883984591535,197,11/2021,"2001 Mercury Villager",107.0,176,48.906959,2.28166
284,Mr.,Alexis,Parenteau,"36 rue Jean Vilar",BELFORT,Franche-Comté,90000,France,AlexisParenteau@rhyta.com,03.53.96.26.34,2/2/1935,Visa,4916082967153944,330,11/2017,"1997 Cadillac Eldorado",93.5,181,47.605581,6.772774
285,Ms.,Daisi,Lachance,"50 Rue de Strasbourg",CLICHY,Île-de-France,92110,France,DaisiLachance@superrito.com,01.20.22.29.34,3/18/1951,Visa,4539685754083186,519,10/2020,"2000 Lada Samara",59.7,171,48.96144,2.322416
286,Mr.,Lothair,Bilodeau,"19 rue Nationale",PARIS,Île-de-France,75007,France,LothairBilodeau@fleckens.hu,01.98.35.22.76,7/14/1936,MasterCard,5230405825998331,428,5/2018,"2008 Acura MDX",60.5,171,48.881073,2.284846
288,Mr.,Marshall,Aubin,"87 rue Pierre Motte",SAINT-DIÉ,Lorraine,88100,France,MarshallAubin@gustr.com,03.19.58.69.09,11/29/1974,Visa,4929268430717721,618,3/2021,"2002 Peugeot RC",90.4,184,48.30973,6.830645
289,Mr.,René,Cole,"Waldowstr. 30","Schwäbisch Hall",Baden-Württemberg,74523,Germany,ReneCole@fleckens.hu,"07904 29 03 86",2/15/1938,MasterCard,5275637230114189,528,2/2021,"2007 Lexus RX",81.7,179,49.036338,9.705651
290,Ms.,Claudia,Braun,"Kastanienallee 76",Hohenwestedt,Schleswig-Holstein,24591,Germany,ClaudiaBraun@fleckens.hu,"04871 90 12 35",3/2/1972,Visa,4929129505432978,624,4/2021,"1997 Vector M12",85.8,161,54.12833,9.695317
291,Mr.,Desire,Auclair,"84 rue Charles Corbeau",FOIX,Midi-Pyrénées,09000,France,DesireAuclair@dayrep.com,05.72.27.66.58,7/22/1988,MasterCard,5322952244117877,119,2/2019,"2007 Volkswagen Golf",67.3,183,42.884122,1.680904
292,Mr.,Lucas,Fried,"Gotzkowskystraße 4",Straelen,Nordrhein-Westfalen,47638,Germany,LucasFried@fleckens.hu,"02834 67 39 50",9/18/1986,MasterCard,5220824992840559,817,11/2017,"2003 Mazda Kusabi",70.0,168,51.508787,6.255205
294,Ms.,Julie,Michel,"78 rue des Chaligny",NICE,"Provence-Alpes-Côte d'Azur",06200,France,JulieMichel@dayrep.com,04.10.17.11.33,5/11/1966,MasterCard,5372961521168809,683,9/2020,"1998 Hyundai Lantra",75.9,171,43.765922,7.3517
295,Mr.,Eric,Luft,"Alt-Moabit 25",Brandenburg,Brandenburg,14749,Germany,EricLuft@rhyta.com,"03381 33 90 98",8/16/1993,Visa,4532714683828029,827,7/2020,"1999 Jaguar XK",75.0,181,52.446787,12.541249
295,Mrs.,Arienne,Reault,"36 Rue Joseph Vernet",BAGNEUX,Île-de-France,92220,France,ArienneReault@dayrep.com,01.21.40.82.85,11/7/1949,MasterCard,5196219185762159,863,12/2019,"2001 Fiat Brava",65.5,168,48.836192,2.407176
296,Mr.,Thomas,Wirtz,"Hochstrasse 49",Ausacker,Schleswig-Holstein,24975,Germany,ThomasWirtz@rhyta.com,"04633 59 43 40",4/29/1944,Visa,4916253862197365,153,12/2020,"2008 Peugeot 407",86.7,183,54.735451,9.61393
296,Mr.,Christophe,Verreau,"81 rue Isambard",FRESNES,Île-de-France,94260,France,ChristopheVerreau@rhyta.com,01.64.22.65.14,11/19/1942,MasterCard,5597852195004553,890,9/2019,"1999 Lada Niva",73.0,176,48.786016,2.360908
299,Mr.,Jonas,Barth,"Lietzenburger Straße 59",Nordhorn,Niedersachsen,48531,Germany,JonasBarth@rhyta.com,"05921 97 99 08",9/15/1967,MasterCard,5116873667034664,033,12/2017,"1999 Subaru Outback",107.6,168,52.534249,7.141885
300,Ms.,Lucille,Laboissonnière,"99 boulevard Aristide Briand","LE CREUSOT",Bourgogne,71200,France,LucilleLaboissonniere@cuvox.de,03.08.23.60.09,4/17/1931,Visa,4485260479274447,458,3/2018,"2015 Infiniti QX80",56.1,168,46.872919,4.452857
301,Mr.,Martin,Urner,"Budapester Straße 71",Beselich,Hessen,65614,Germany,MartinUrner@jourrapide.com,"06484 11 84 07",8/4/1963,MasterCard,5533151007492958,414,12/2017,"1999 Jaguar S-Type",68.2,188,50.363337,8.13362
301,Ms.,France,Saurel,"81 avenue de Bouvines",SCHOELCHER,Martinique,97233,France,FranceSaurel@armyspy.com,05.97.22.80.26,7/12/1979,MasterCard,5286901162027844,592,2/2019,"2000 Lincoln Continental",100.4,156,47.184656,-1.563841
302,Mr.,Jan,Herrmann,"Kantstrasse 65",Nürnberg,"Freistaat Bayern",90235,Germany,JanHerrmann@cuvox.de,"0911 48 20 18",2/12/1977,Visa,4485900626983883,408,9/2021,"2009 Buick LaCrosse",65.2,171,49.470523,11.073476
303,Ms.,Lena,Beyer,"Marseiller Strasse 69",Penzberg,"Freistaat Bayern",82377,Germany,LenaBeyer@cuvox.de,"08856 86 57 09",4/7/1999,Visa,4556841108174837,171,9/2020,"2001 Mercedes-Benz GLK",43.6,173,47.807352,11.29151
305,Mr.,Thorsten,Eichmann,"Ruschestrasse 2",Halberstadt,Sachsen-Anhalt,38803,Germany,ThorstenEichmann@jourrapide.com,"03941 93 19 29",7/10/1945,MasterCard,5398705763086488,097,2/2020,"2015 Hyundai Sonata Hybrid",105.4,176,51.941246,11.012298
305,Mr.,Yves,Paquet,"92 Rue Joseph Vernet",BAGNOLET,Île-de-France,93170,France,YvesPaquet@gustr.com,01.45.11.18.33,5/5/1994,MasterCard,5376916083409146,320,1/2019,"1994 Infiniti J30",79.3,178,48.903405,2.373589
308,Mr.,Byron,Voisine,"4 Rue de Verdun",MONTCEAU-LES-MINES,Bourgogne,71300,France,ByronVoisine@einrot.com,03.89.97.80.42,10/5/1961,Visa,4532541718972930,741,12/2021,"2006 BMW 120",105.2,184,46.666604,4.471961
312,Mr.,Luca,Schweitzer,"Hallesches Ufer 42",Perl,"Freistaat Thüringen",66702,Germany,LucaSchweitzer@gustr.com,"06865 45 06 93",6/18/1986,MasterCard,5237232892812507,061,12/2019,"2012 SsangYong Rodius",98.0,184,49.391941,6.339341
312,Mr.,Florismart,Paquin,"18 rue des Coudriers",MULHOUSE,Alsace,68100,France,FlorismartPaquin@cuvox.de,03.31.22.23.92,12/16/1978,MasterCard,5347545234312747,014,4/2019,"2014 Chevrolet SS",79.1,171,47.774884,7.405654
313,Mrs.,Julia,Blau,"Fasanenstrasse 1","Hamburg Ottensen",Hamburg,22765,Germany,JuliaBlau@gustr.com,"040 96 31 69",12/31/1956,MasterCard,5582865372740481,673,2/2019,"2015 Volkswagen CC",83.1,163,53.481397,9.897677
314,Mr.,Jörg,König,"Straße der Pariser Kommune 10",Dortmund,Nordrhein-Westfalen,44269,Germany,JorgKonig@superrito.com,"0231 11 16 62",7/1/1990,MasterCard,5532744813994414,310,12/2020,"1997 MCC Smart",70.6,183,51.514349,7.606898
317,Mr.,Artus,Trudeau,"31 Place de la Gare",COLMAR,Alsace,68000,France,ArtusTrudeau@cuvox.de,03.87.65.27.17,4/18/1996,Visa,4485598115979915,839,12/2020,"2005 Hyundai Matrix",82.7,186,48.100661,7.296088
318,Ms.,Gabriele,Walter,"Augsburger Straße 42",Hagen,Nordrhein-Westfalen,58089,Germany,GabrieleWalter@teleworm.us,"02331 62 87 56",11/1/1970,MasterCard,5342520598155706,545,11/2018,"1996 Toyota Carina",77.0,173,51.311386,7.340751
318,Ms.,Clementine,Dumont,"20 Avenue des Pr'es",MONTLUÇON,Auvergne,03100,France,ClementineDumont@armyspy.com,04.47.71.03.98,1/19/1993,Visa,4556116947366112,321,8/2017,"2005 Volvo V70",95.4,161,46.300455,2.652691
320,Ms.,Birgit,Bayer,"Messedamm 36",Halle,Sachsen-Anhalt,06108,Germany,BirgitBayer@einrot.com,"0345 41 73 47",5/29/1939,Visa,4916796857424483,379,6/2018,"2001 Volkswagen New Beetle",88.4,153,51.576677,12.032754
320,Ms.,Gabrielle,Charlebois,"40 rue Porte d'Orange",CAVAILLON,"Provence-Alpes-Côte d'Azur",84300,France,GabrielleCharlebois@einrot.com,04.84.57.34.51,5/16/1991,MasterCard,5599959879752981,703,3/2021,"1997 Lexus GS",89.9,173,43.788686,5.003203
322,Mr.,Mandel,Gaillard,"97 Rue Joseph Vernet",BAIE-MAHAULT,Guadeloupe,97122,France,MandelGaillard@einrot.com,05.61.46.70.26,4/9/1965,MasterCard,5261887439473599,236,10/2021,"2002 Chevrolet Tahoe",90.3,188,43.90531,1.172359
323,Mrs.,Aceline,Morneau,"49 cours Jean Jaures",BOULOGNE-BILLANCOURT,Île-de-France,92100,France,AcelineMorneau@armyspy.com,01.25.94.55.58,10/21/1962,Visa,4916732556201591,949,7/2020,"2000 Mazda 323",103.5,156,48.875659,2.162009
324,Ms.,Diana,Klug,"Invalidenstrasse 93",Hilst,Rheinland-Pfalz,66957,Germany,DianaKlug@teleworm.us,"06335 64 17 32",4/29/1985,Visa,4556527920644319,516,3/2020,"2006 Mazda 3",66.5,161,49.14935,7.467652
325,Mr.,Markus,Ehrlichmann,"Straße der Pariser Kommune 57",Dortmund,Nordrhein-Westfalen,44328,Germany,MarkusEhrlichmann@cuvox.de,"0231 58 48 78",7/31/1995,MasterCard,5174140094616672,161,7/2021,"2003 Jaguar R-D6",95.2,168,51.544324,7.445258
325,Mr.,Paien,Charest,"31 Rue de Verdun",MONTGERON,Île-de-France,91230,France,PaienCharest@rhyta.com,01.48.31.43.24,4/9/1968,MasterCard,5330026379202620,626,10/2019,"1996 Italdesign Formula 4",115.8,178,48.721101,2.411071
327,Mr.,Wolfgang,Fuhrmann,"Jahnstrasse 57",Gars,"Freistaat Bayern",83536,Germany,WolfgangFuhrmann@teleworm.us,"08072 73 80 51",9/5/1997,MasterCard,5558825006781319,768,7/2020,"2005 Mazda Drifter",86.3,163,48.117451,12.311987
329,Mr.,Franck,Charlesbois,"4 Cours Marechal-Joffre",DIEPPE,Haute-Normandie,76200,France,FranckCharlesbois@teleworm.us,02.01.76.44.50,11/3/1989,MasterCard,5357703122192930,304,11/2017,"2012 Volkswagen Routan",96.4,171,49.85419,0.996131
330,Ms.,Nicole,Lacroix,"6 Boulevard de Normandie",FONTENAY-SOUS-BOIS,Île-de-France,94120,France,NicoleLacroix@fleckens.hu,01.65.62.86.21,1/11/1975,Visa,4485080517606156,323,1/2020,"2001 Volkswagen Golf",76.8,156,48.864288,2.476416
331,Mrs.,Kerstin,Bergmann,"Kirchenallee 71",Deggendorf,"Freistaat Bayern",94457,Germany,KerstinBergmann@gustr.com,"09901 72 37 30",11/9/1951,MasterCard,5248134434682405,743,12/2018,"2000 Mitsubishi Diamante",65.1,163,48.793505,12.985218
333,Ms.,Linette,Larivière,"13 Rue Roussy",NOISY-LE-SEC,Île-de-France,93130,France,LinetteLariviere@armyspy.com,01.02.29.23.16,7/11/1979,Visa,4916652115397179,009,8/2019,"2005 Infiniti FX",93.7,168,48.974648,2.466155
334,Mr.,Ogier,Beauchamps,"87 rue des Coudriers",MULHOUSE,Alsace,68200,France,OgierBeauchamps@armyspy.com,03.23.61.62.09,5/2/1976,Visa,4539914495452827,007,9/2019,"2012 Cadillac SRX",71.1,188,47.832977,7.370189
335,Mr.,Frank,Adler,"Neue Roßstr. 7",Leinfelden-Echterdingen,Baden-Württemberg,70771,Germany,FrankAdler@cuvox.de,"0711 40 32 61",1/3/1934,MasterCard,5159518196983067,471,7/2018,"1999 Bentley Arnage",76.2,171,48.769047,9.210163
336,Ms.,Emmanuelle,Fremont,"59 Avenue Millies Lacroix",EAUBONNE,Île-de-France,95600,France,EmmanuelleFremont@einrot.com,01.26.95.76.86,9/17/1986,MasterCard,5143903681162915,989,12/2018,"2009 Dodge Caliber",93.8,156,49.045252,2.355342
337,Mrs.,Gabriele,Ackermann,"Anhalter Strasse 91",Gries,Rheinland-Pfalz,66903,Germany,GabrieleAckermann@cuvox.de,"06373 48 87 98",6/10/1935,Visa,4532033331924217,018,7/2019,"2006 Toyota Camry",62.1,151,49.501758,7.31271
337,Mrs.,Xavierre,Neufville,"70 Avenue Millies Lacroix",DUNKERQUE,Nord-Pas-de-Calais,59640,France,XavierreNeufville@armyspy.com,03.22.76.72.13,8/20/1974,MasterCard,5425549707877744,598,1/2018,"2006 Honda Pilot",72.3,156,50.979684,2.444995
338,Ms.,Élodie,Leclerc,"71 rue de la République",LYON,Rhône-Alpes,69004,France,ElodieLeclerc@teleworm.us,04.65.02.82.81,1/18/2001,Visa,4916715418181879,542,2/2019,"2002 Suzuki Covie",39.8,158,45.859326,4.907925
339,Mrs.,Lea,Kaufmann,"Alt Reinickendorf 54",Hindelang,"Freistaat Bayern",87541,Germany,LeaKaufmann@einrot.com,"08324 86 77 88",11/25/1944,Visa,4556447978712324,535,4/2021,"2000 Smart Roadster",56.2,166,47.571614,10.427112
340,Mr.,Théodore,Latourelle,"80 boulevard Albin Durand",CHAMBÉRY,Rhône-Alpes,73000,France,TheodoreLatourelle@einrot.com,04.46.75.13.66,4/18/1997,MasterCard,5155135290158530,212,8/2017,"2006 Lincoln Zephyr",78.9,189,45.635253,5.846189
341,Ms.,Silke,Neustadt,"Lützowplatz 33",Hockweiler,Rheinland-Pfalz,54316,Germany,SilkeNeustadt@armyspy.com,"06588 91 77 30",6/20/1983,Visa,4556787775919261,562,8/2020,"2000 Buick Regal",96.8,158,49.589424,6.661523
341,Mrs.,Stéphanie,Bellemare,"77 rue Adolphe Wurtz","LE PLESSIS-ROBINSON",Île-de-France,92350,France,StephanieBellemare@fleckens.hu,01.85.27.73.40,9/16/1992,Visa,4539968179740345,950,9/2021,"2005 Audi A8",79.7,156,48.746921,2.349299
347,Mr.,Dominik,Lehmann,"Augsburger Strasse 83",Dümpelfeld,Rheinland-Pfalz,53520,Germany,DominikLehmann@teleworm.us,"02695 10 53 28",12/30/1994,Visa,4916516727811853,958,12/2020,"2010 Citroen C8",84.7,181,50.440893,7.083587
347,Mrs.,Julienne,Chaussée,"78 rue Cazade",DUNKERQUE,Nord-Pas-de-Calais,59140,France,JulienneChaussee@einrot.com,03.23.51.58.58,5/23/1942,Visa,4556205371559530,427,7/2019,"2002 Seat Toledo",60.6,156,51.027881,2.333273
348,Mr.,Wolfgang,Mueller,"Stresemannstr. 14",Tholey,"Freistaat Thüringen",66633,Germany,WolfgangMueller@cuvox.de,"06853 55 07 47",9/6/1982,MasterCard,5468011104369948,368,5/2021,"2003 Land Rover Range Rover",79.0,168,49.577238,7.05844
348,Mr.,René,Richard,"26 rue des Nations Unies",SAINT-CHAMOND,Rhône-Alpes,42400,France,ReneRichard@jourrapide.com,04.04.63.62.98,6/8/1979,Visa,4916626328700916,907,12/2018,"2000 Subaru STX",98.2,188,45.537507,4.447276
349,Mr.,Brice,Robillard,"26 rue Léon Dierx",LOMME,Nord-Pas-de-Calais,59160,France,BriceRobillard@fleckens.hu,03.57.69.87.18,9/15/1967,MasterCard,5426645565472427,574,9/2017,"2007 Jeep Commander",95.5,188,50.599382,2.968655
350,Mr.,Amaury,Vallée,"75 Rue Frédéric Chopin",VESOUL,Franche-Comté,70000,France,AmauryVallee@teleworm.us,03.99.59.32.00,10/9/1932,Visa,4716318298392179,100,3/2017,"2011 Audi S6",100.4,178,47.43096,6.122791
351,Mrs.,Jessica,Schröder,"Bleibtreustraße 94",Schönwald,"Freistaat Bayern",95170,Germany,JessicaSchroder@cuvox.de,"07722 52 35 45",8/12/1975,MasterCard,5410180099867429,433,8/2021,"1996 Chevrolet Monte Carlo",75.5,156,48.054606,8.294174
351,Mr.,Julien,Parizeau,"86 rue Cazade",DRAVEIL,Île-de-France,91210,France,JulienParizeau@superrito.com,01.88.65.43.05,2/21/1952,MasterCard,5260816679250871,091,3/2021,"1996 Jaguar XK8",101.8,181,48.674717,2.409674
352,Ms.,Christin,Beckenbauer,"Scharnweberstrasse 53","Königstein im Taunus",Hessen,61462,Germany,ChristinBeckenbauer@fleckens.hu,"06174 64 62 94",2/25/1968,MasterCard,5224415427968416,988,3/2019,"2007 Acura RL",88.7,156,50.262752,8.445446
353,Dr.,Uta,Walter,"Hardenbergstraße 53",Nanzdietschweiler,Rheinland-Pfalz,66909,Germany,UtaWalter@superrito.com,"06383 91 01 70",11/11/1949,MasterCard,5476674353152776,526,7/2019,"2008 Fiat Ulysse",100.2,155,49.396495,7.353845
353,Dr.,Dominique,Arcouet,"37 rue du Château",SAINT-ÉTIENNE-DU-ROUVRAY,Haute-Normandie,76800,France,DominiqueArcouet@fleckens.hu,02.83.12.94.10,7/11/1968,MasterCard,5445885363768223,485,7/2019,"2014 Mercedes-Benz M-Class",91.8,155,49.466295,1.118221
354,Mr.,Jens,Abt,"Stuttgarter Platz 73",Seelbach,Rheinland-Pfalz,56377,Germany,JensAbt@superrito.com,"02604 20 72 14",12/27/1960,Visa,4485220841719719,861,7/2018,"1995 Suzuki Swift",114.5,188,50.329966,7.831116
355,Mr.,Medoro,Jetté,"20 avenue Ferdinand de Lesseps",GRENOBLE,Rhône-Alpes,38000,France,MedoroJette@fleckens.hu,04.66.30.80.26,10/25/1982,MasterCard,5258148931837442,113,9/2021,"1994 Subaru SVX",100.1,189,45.252462,5.616967
356,Ms.,Sara,Gärtner,"Ollenhauer Str. 39","Stuttgart Hoffeld",Baden-Württemberg,70597,Germany,SaraGartner@gustr.com,"0711 61 28 29",11/29/1933,MasterCard,5253436701702564,891,6/2017,"2004 Toyota Hilux",75.1,158,48.707099,9.145825
358,Mr.,Jan,Eisenhauer,"Augsburger Strasse 76","Langenbach bei Kirburg",Rheinland-Pfalz,57520,Germany,JanEisenhauer@armyspy.com,"02743 24 67 45",9/8/1979,Visa,4485726260479296,591,4/2018,"2009 BMW 745",95.5,189,50.65058,7.810321
358,Mr.,Thierry,Hervieux,"74 Rue de Strasbourg",CLAMART,Île-de-France,92140,France,ThierryHervieux@superrito.com,01.72.64.34.58,3/26/1950,MasterCard,5324467290224228,893,11/2019,"2008 Ford F-150",70.9,171,48.711137,2.327182
359,Mr.,Courtland,Gour,"52 rue Descartes",STRASBOURG,Alsace,67200,France,CourtlandGour@superrito.com,03.72.05.77.17,2/2/1993,MasterCard,5496800162921350,262,1/2020,"2009 Mercury Mountaineer",61.1,171,48.60218,7.796824
360,Mr.,Pryor,Beausoleil,"62 cours Jean Jaures",BORDEAUX,Aquitaine,33800,France,PryorBeausoleil@dayrep.com,05.70.76.30.07,3/18/1961,Visa,4485265360007194,525,11/2018,"2011 Lexus ES",87.4,184,44.839457,-0.565775
361,Mr.,Ralf,Gloeckner,"Rudower Strasse 61",Winterspelt,Rheinland-Pfalz,54616,Germany,RalfGloeckner@cuvox.de,"06555 56 46 75",12/27/1946,MasterCard,5198972359236438,131,9/2021,"1994 Buick Roadmaster",96.0,166,50.292298,6.314976
361,Ms.,Clémence,Quessy,"90 Rue de Strasbourg",CLERMONT-FERRAND,Auvergne,63000,France,ClemenceQuessy@superrito.com,04.49.11.40.40,3/6/1977,Visa,4716729863822772,747,6/2021,"1995 Oldsmobile Aurora",54.9,155,45.690346,3.060343
363,Mr.,Thomas,Kalb,"Kurfürstenstraße 71",Affalterbach,Baden-Württemberg,71563,Germany,ThomasKalb@jourrapide.com,"07144 38 94 30",7/24/1964,Visa,4929473442557269,044,9/2020,"2011 BMW 525",73.1,179,48.965912,9.250059
363,Mr.,Auriville,Parrot,"18 avenue Ferdinand de Lesseps",GRADIGNAN,Aquitaine,33170,France,AurivilleParrot@fleckens.hu,05.59.85.84.85,9/3/1993,MasterCard,5196482349036684,269,6/2018,"1999 Opel Speedster",57.8,184,44.772489,-0.608791
364,Mrs.,Angelika,Farber,"Brandenburgische Str 92",Birkheim,Rheinland-Pfalz,56291,Germany,AngelikaFarber@teleworm.us,"06746 78 36 69",6/10/1959,MasterCard,5513529962194772,683,8/2019,"2007 Nissan Note",89.3,156,50.192037,7.615206
364,Ms.,Martine,Busque,"46 rue Sébastopol",SAINTE-MARIE,Martinique,97230,France,MartineBusque@rhyta.com,05.87.30.00.60,9/2/1975,Visa,4539700924782789,979,2/2019,"1993 Innocenti Koral",53.8,171,42.720689,2.95343
365,Mr.,Mike,Trommler,"Grolmanstraße 34","Bremen Industriehäfen","Freie Hansestadt Bremen",28237,Germany,MikeTrommler@cuvox.de,"0421 16 35 42",1/30/1986,Visa,4916016315607029,855,5/2017,"2007 Peugeot 206",92.7,183,53.148662,8.732574
367,Mr.,Hugues,Moquin,"14 rue Pierre Motte",SAINT-DIÉ,Lorraine,88100,France,HuguesMoquin@einrot.com,03.31.57.26.62,8/18/1950,MasterCard,5516892581825961,002,12/2017,"2000 Tata Indica",62.8,183,48.239522,6.864318
369,Mr.,Alain,Chaloux,"43 rue Goya","LE MANS","Pays de la Loire",72000,France,AlainChaloux@gustr.com,02.18.06.50.50,9/14/1943,MasterCard,5384601298023151,485,2/2017,"1995 Toyota Starlet",63.0,183,48.05708,0.202287
370,Mr.,Gilbert,Bondy,"48 rue Gontier-Patin",AGDE,Languedoc-Roussillon,34300,France,GilbertBondy@teleworm.us,04.32.58.98.92,11/25/1980,Visa,4539289472581462,113,12/2020,"2008 Mazda MPV",89.8,179,43.26671,3.442523
372,Ms.,Sandra,Decker,"Storkower Strasse 8",Helferskirchen,Rheinland-Pfalz,56244,Germany,SandraDecker@superrito.com,"02626 11 94 86",7/4/1943,Visa,4556692284623612,724,3/2021,"2000 TVR Tuscan",92.3,161,50.527799,7.678485
372,Mr.,Armand,Lamoureux,"42 rue des Nations Unies",SAINT-CHAMOND,Rhône-Alpes,42400,France,ArmandLamoureux@einrot.com,04.81.74.80.04,11/22/1948,Visa,4532865833878320,005,5/2019,"1995 Volvo 850",65.2,166,45.532578,4.614458
373,Mrs.,Aimée,Hébert,"20 Cours Marechal-Joffre",DEUIL-LA-BARRE,Île-de-France,95170,France,AimeeHebert@jourrapide.com,01.87.32.39.84,11/19/1972,Visa,4556108016322688,760,1/2020,"1996 Volkswagen Quantum",69.7,155,49.009904,2.265114
375,Mr.,Lucas,Werner,"Ansbacher Strasse 80",Reipeldingen,Rheinland-Pfalz,54689,Germany,LucasWerner@jourrapide.com,"06550 67 14 74",2/21/1990,Visa,4485645415858909,438,5/2019,"2005 Toyota MR2",107.6,181,50.006072,6.312321
376,Ms.,Renée,Querry,"50 Cours Marechal-Joffre",DEUIL-LA-BARRE,Île-de-France,95170,France,ReneeQuerry@gustr.com,01.29.54.38.64,3/20/1959,Visa,4716934272742260,134,8/2020,"2005 Seat Cordoba",66.7,161,48.916185,2.408397
377,Mr.,Eric,Unger,"Landhausstraße 76",Schwedt,Brandenburg,16294,Germany,EricUnger@rhyta.com,"03332 78 31 99",2/7/1955,Visa,4556790577705623,813,3/2017,"2003 Daewoo Lanos",87.5,184,52.979182,14.369925
377,Mr.,Roslyn,Mazuret,"52 rue Lenotre",RAMBOUILLET,Île-de-France,78120,France,RoslynMazuret@fleckens.hu,01.68.75.42.02,9/9/1947,MasterCard,5537572653117357,117,5/2018,"2005 Tata Indigo",68.8,179,48.620566,1.7842
378,Ms.,Melusina,Mazuret,"43 rue Grande Fusterie",BRIVE-LA-GAILLARDE,Limousin,19100,France,MelusinaMazuret@armyspy.com,05.26.54.59.06,4/9/1975,Visa,4532462632907805,800,4/2019,"2000 Porsche 911",61.3,161,45.221749,1.46467
379,Mrs.,Birgit,Hoffmann,"Hardenbergstraße 49","Rutsweiler am Glan",Rheinland-Pfalz,66887,Germany,BirgitHoffmann@cuvox.de,"06381 45 09 46",12/7/1930,Visa,4556087268653323,838,8/2020,"2011 SsangYong Chairman W",73.6,166,49.608688,7.611563
380,Mr.,Thorsten,Vogler,"Schoenebergerstrasse 45",Stralsund,Mecklenburg-Vorpommern,18408,Germany,ThorstenVogler@teleworm.us,"03831 19 97 87",7/13/1991,MasterCard,5272411635155897,656,1/2018,"2010 Mitsubishi Galant",87.5,173,54.295492,13.123296
381,Ms.,Michelle,Fisher,"Ziegelstr. 69",Neuhaus,"Freistaat Bayern",94152,Germany,MichelleFisher@superrito.com,"08507 40 02 46",7/8/1946,MasterCard,5436903864812993,802,2/2019,"2010 Audi TT",93.5,171,48.458838,13.481849
383,Ms.,Slainie,Joly,"34 place Stanislas",NANTES,"Pays de la Loire",44000,France,SlainieJoly@dayrep.com,02.81.56.72.95,6/16/1938,Visa,4929470261338565,790,11/2019,"2005 Suzuki XL7",95.6,150,47.246649,-1.589787
384,Mr.,Jürgen,Eisenberg,"Reeperbahn 86",Nienhagen,Niedersachsen,29336,Germany,JurgenEisenberg@teleworm.us,"038203 19 77",4/27/1996,MasterCard,5211518119689920,045,3/2018,"2005 Toyota Yaris",58.4,186,52.581415,10.099816
387,Mr.,Marco,Eberhart,"Luckenwalder Strasse 23",Haßbergen,Niedersachsen,31626,Germany,MarcoEberhart@fleckens.hu,"05024 16 02 70",6/4/1948,Visa,4556731336209630,769,4/2017,"1994 Mazda 626",77.7,163,52.701579,9.206406
388,Mr.,Luca,Faerber,"Nuernbergerstrasse 83",Scharbeutz,Schleswig-Holstein,23679,Germany,LucaFaerber@armyspy.com,"04503 17 89 70",9/5/1989,MasterCard,5161127927081542,240,6/2020,"2003 MG ZT-T",63.9,186,53.945036,10.78364
388,Ms.,Gemma,Lamare,"32 rue Cazade",DRANCY,Île-de-France,93700,France,GemmaLamare@fleckens.hu,01.80.67.12.92,2/19/1932,Visa,4532016580495716,017,2/2019,"2015 Nissan NV Passenger",67.3,158,49.012078,2.509183
389,Ms.,Baptiste,Brian,"96 rue Pierre De Coubertin",TOULOUSE,Midi-Pyrénées,31100,France,BaptisteBrian@rhyta.com,05.83.55.51.24,2/10/1933,Visa,4556002960656565,842,12/2021,"2009 Buick Enclave",70.6,156,43.579727,1.431865
390,Mr.,Philipp,Unger,"Am Borsigturm 71",Hünxe,Nordrhein-Westfalen,46569,Germany,PhilippUnger@einrot.com,"02064 86 54 85",8/3/1972,MasterCard,5517080514718052,400,12/2018,"2010 Nissan Armada",92.2,184,51.684747,6.729558
390,Mr.,Théophile,Picard,"37 rue du Paillle en queue",LEVALLOIS-PERRET,Île-de-France,92300,France,TheophilePicard@gustr.com,01.55.06.64.04,6/27/1977,MasterCard,5508281888940311,962,4/2021,"1993 Venturi Cabriolet",72.1,176,48.889386,2.292854
391,Ms.,Susanne,Schwarz,"Potsdamer Platz 54",Oberstaufen,"Freistaat Bayern",87528,Germany,SusanneSchwarz@einrot.com,"08386 84 60 67",4/13/1959,Visa,4485787535632705,347,9/2020,"2002 Noble M12",91.5,153,47.639349,9.987183
392,Mr.,Andreas,Koehler,"Alt Reinickendorf 95",Sulzberg,"Freistaat Bayern",87475,Germany,AndreasKoehler@armyspy.com,"08303 21 58 02",6/7/1945,MasterCard,5536008798213448,515,2/2019,"2011 Dodge Grand Caravan",66.4,176,47.712985,10.280294
393,Mr.,Yves,Plaisance,"72 avenue de Provence",VALENCE,Rhône-Alpes,26000,France,YvesPlaisance@superrito.com,04.04.00.04.74,8/11/1951,MasterCard,5121457980481829,482,10/2018,"1998 Ford Thunderbird",95.5,181,44.979695,4.843468
394,Mrs.,Stephanie,Koertig,"Eschenweg 78",Schmalkalden,"Freistaat Thüringen",98565,Germany,StephanieKoertig@teleworm.us,"03683 85 56 53",6/9/1938,Visa,4485655512464774,185,10/2017,"2005 MG TF",71.3,155,50.80369,10.416784
394,Mr.,Talon,Corbeil,"45 rue Marguerite",VILLEURBANNE,Rhône-Alpes,69100,France,TalonCorbeil@dayrep.com,04.78.36.24.80,3/19/1970,MasterCard,5420079645621173,333,7/2020,"1996 Bentley Brooklands",74.6,179,45.668234,4.839508
395,Mr.,Didier,Courtemanche,"19 rue des Chaligny",NICE,"Provence-Alpes-Côte d'Azur",06100,France,DidierCourtemanche@superrito.com,04.70.63.97.05,4/25/1942,Visa,4532845215798494,791,1/2017,"2001 Hyundai Atos",80.4,171,43.784886,7.249505
396,Mrs.,Anke,Weiss,"Jenaer Strasse 14","Wuppertal Elberfeld",Nordrhein-Westfalen,42117,Germany,AnkeWeiss@teleworm.us,"0202 92 29 58",4/5/1988,Visa,4929845854307822,799,1/2018,"1994 Mercury Grand Marquis",76.5,168,51.161348,7.024965
396,Mr.,Ranger,Compagnon,"7 avenue de Bouvines",SEDAN,Champagne-Ardenne,08200,France,RangerCompagnon@cuvox.de,03.31.28.72.26,2/24/1998,Visa,4916459759807681,878,7/2019,"1995 Ford Mondeo",73.9,176,49.605602,4.91644
397,Mrs.,Madelene,Cousteau,"71 Chemin Du Lavarin Sud",CACHAN,Île-de-France,94230,France,MadeleneCousteau@fleckens.hu,01.81.58.31.43,6/5/1972,Visa,4539198940901501,316,5/2018,"2008 Chevrolet Rezzo",79.8,168,48.769374,2.358663
398,Mrs.,Christine,Loewe,"Knesebeckstrasse 27",Hilgenroth,Rheinland-Pfalz,57612,Germany,ChristineLoewe@fleckens.hu,"02682 72 74 80",5/20/1940,MasterCard,5293215587877944,413,5/2017,"1999 Daihatsu Rocky",50.3,166,50.641651,7.748461
398,Ms.,Mignonette,Larivière,"47 rue des Coudriers",MOULINS,Auvergne,03000,France,MignonetteLariviere@jourrapide.com,04.97.08.03.15,12/15/1984,MasterCard,5274218437577204,776,6/2019,"1999 Mercedes-Benz GLK",87.8,161,46.439401,3.275005
400,Mr.,Erik,Lehrer,"Hans-Grade-Allee 38",Böklund,Schleswig-Holstein,24858,Germany,ErikLehrer@superrito.com,"04623 54 32 84",6/25/1955,MasterCard,5234152945406433,974,3/2020,"1996 Honda Shuttle",111.2,178,54.457074,9.657854
400,Mr.,Ansel,Miron,"99 rue de Penthièvre",PONTOISE,Île-de-France,95300,France,AnselMiron@einrot.com,03.46.02.31.61,9/24/1939,MasterCard,5174686466653966,810,8/2017,"1998 Kia Retona",65.4,178,49.14922,2.104767
401,Mrs.,Martina,Bergmann,"Rudolstaedter Strasse 71",Rheine,Nordrhein-Westfalen,48432,Germany,MartinaBergmann@gustr.com,"05971 46 87 47",10/7/1956,MasterCard,5175850224895041,957,5/2019,"2003 Isuzu Ascender",86.9,173,52.251269,7.358473
402,Mrs.,Delit,Dostie,"66 rue Pierre De Coubertin",TOULOUSE,Midi-Pyrénées,31400,France,DelitDostie@cuvox.de,05.84.66.57.64,6/18/1972,MasterCard,5366726332374161,999,11/2020,"2014 Jeep Compass",75.2,158,43.642241,1.522396
403,Mr.,Lukas,Probst,"Heiligengeistbrücke 21",Feuchtwangen,"Freistaat Bayern",91552,Germany,LukasProbst@armyspy.com,"09852 56 37 40",1/14/1976,MasterCard,5268492604898614,715,2/2020,"1994 Daihatsu Rocky",101.2,168,49.217322,10.279382
405,Mr.,Tom,Engel,"Bayreuther Strasse 21","Ulm Mitte",Baden-Württemberg,89075,Germany,TomEngel@rhyta.com,"073 29 89 59",10/9/1934,Visa,4485173751255432,845,7/2020,"2011 Citroen C4",89.8,179,48.496769,9.901456
405,Mr.,Tanguy,Charpentier,"24 rue Gustave Eiffel",ROANNE,Rhône-Alpes,42300,France,TanguyCharpentier@jourrapide.com,04.80.21.13.34,2/4/1965,MasterCard,5554960347340212,300,8/2019,"1999 Toyota Crown",98.0,178,46.017255,4.123757
406,Mrs.,Brie,L'Heureux,"83 rue des six frères Ruellan",SALON-DE-PROVENCE,"Provence-Alpes-Côte d'Azur",13300,France,BrieLHeureux@rhyta.com,04.00.29.86.57,12/5/1970,Visa,4716751907662030,130,5/2018,"2011 Chevrolet Express",51.5,166,43.629539,5.09132
407,Mrs.,Katharina,Kortig,"Lietzensee-Ufer 42",Lohmen,"Freistaat Sachsen",01845,Germany,KatharinaKortig@fleckens.hu,"03501 68 30 64",11/4/1953,Visa,4556737695625266,853,3/2020,"2001 Chrysler Concorde",78.2,163,50.963058,13.9203
407,Mr.,Ganelon,Labonté,"17 rue de Groussay",RODEZ,Midi-Pyrénées,12000,France,GanelonLabonte@gustr.com,05.25.83.28.07,3/3/1969,MasterCard,5118378090561646,195,4/2019,"1993 Aston Martin Virage",95.0,176,44.385657,2.535455
409,Mr.,Dominik,Schuster,"Leipziger Straße 81",Hattorf,Niedersachsen,37197,Germany,DominikSchuster@cuvox.de,"05584 25 20 54",4/5/1958,MasterCard,5137076749062571,980,6/2020,"2001 Porsche Boxster",83.3,171,51.65255,10.21001
410,Ms.,Diana,Seiler,"An der Schillingbrucke 65","Aalen Unterkochen",Baden-Württemberg,73432,Germany,DianaSeiler@einrot.com,"07361 19 07 61",9/21/1995,MasterCard,5235126867646548,063,11/2019,"1999 Nissan President",47.4,166,48.871482,10.061963
410,Mrs.,Monique,Michaud,"15 rue de la Hulotais",SAINT-RAPHAËL,"Provence-Alpes-Côte d'Azur",83700,France,MoniqueMichaud@jourrapide.com,04.15.76.22.91,6/21/1940,Visa,4532785425750093,210,5/2021,"2001 Lexus IS",65.4,161,43.498324,6.838837
411,Mr.,Thomas,Weiss,"Knesebeckstrasse 31",Kraam,Rheinland-Pfalz,57635,Germany,ThomasWeiss@rhyta.com,"02686 50 85 87",12/20/1930,Visa,4929666208725042,507,4/2020,"2011 Volvo V50",81.7,183,50.636751,7.44758
411,Mr.,Alexis,Dastous,"48 Rue du Limas",BASSE-TERRE,Guadeloupe,97100,France,AlexisDastous@jourrapide.com,05.55.74.14.63,7/12/1981,Visa,4929173726059699,982,1/2020,"2004 Fiat Siena",109.1,189,48.824774,-0.516747
412,Mr.,Jonas,Meier,"Messedamm 72",Halle,Sachsen-Anhalt,06057,Germany,JonasMeier@rhyta.com,"0345 53 27 51",6/6/1976,MasterCard,5480012336853521,665,4/2020,"1999 Rover 200",64.0,186,51.527474,11.966642
412,Mr.,Moore,Morin,"81 rue des Soeurs","LA CELLE-SAINT-CLOUD",Île-de-France,78170,France,MooreMorin@armyspy.com,01.79.62.80.51,11/13/1956,MasterCard,5283578336878626,199,7/2021,"2011 Volkswagen Phaeton",76.2,168,48.84606,2.220526
413,Mr.,Michael,Kuester,"Gubener Str. 16",Holzkirchen,"Freistaat Bayern",83604,Germany,MichaelKuester@fleckens.hu,"08024 49 99 08",6/20/1951,Visa,4539037029227703,854,5/2017,"2002 Ascari Ecosse",109.7,171,47.78207,11.73128
413,Mr.,Donat,Vallée,"53 rue Sébastopol",SAINT-ÉTIENNE,Rhône-Alpes,42000,France,DonatVallee@cuvox.de,04.93.50.30.09,7/5/1939,Visa,4916960555908607,379,3/2019,"2015 Mercedes-Benz C-Class",102.3,183,45.413964,4.434383
414,Mrs.,Antje,Duerr,"Augsburger Straße 82","Hattingen Niederbonsfeld",Nordrhein-Westfalen,45529,Germany,AntjeDuerr@cuvox.de,"02324 98 57 66",3/15/1940,Visa,4916337997681946,055,9/2017,"1999 Alfa Romeo 156",83.3,151,51.474996,7.198127
414,Ms.,Jolie,Lacasse,"82 rue du Président Roosevelt",SCHILTIGHEIM,Alsace,67300,France,JolieLacasse@rhyta.com,03.55.10.57.09,3/17/1998,MasterCard,5552111004949463,682,2/2019,"2008 Opel Frontera",45.6,166,48.670038,7.690971
415,Mr.,Torsten,Gerber,"Fugger Strasse 33","Koblenz Lützel",Rheinland-Pfalz,56070,Germany,TorstenGerber@armyspy.com,"0261 87 31 22",5/6/1994,MasterCard,5264462112999091,104,2/2017,"2015 Lexus GS 350",77.2,168,50.420145,7.558053
415,Mr.,Isaac,Houde,"5 Rue de la Pompe",MANOSQUE,"Provence-Alpes-Côte d'Azur",04100,France,IsaacHoude@dayrep.com,04.53.36.40.74,4/4/1999,MasterCard,5320525808005282,972,11/2017,"2007 Seat Alhambra",69.1,184,43.844547,5.847219
416,Mr.,Mandel,Lacharité,"92 quai Saint-Nicolas",TOURCOING,Nord-Pas-de-Calais,59200,France,MandelLacharite@einrot.com,03.02.95.13.88,2/8/1986,MasterCard,5385307691729910,042,2/2018,"2014 Kia Optima",74.4,179,50.815018,3.209056
419,Mr.,Mike,Bohm,"Schoenebergerstrasse 96",Mylau,"Freistaat Sachsen",08499,Germany,MikeBohm@armyspy.com,"03765 56 64 68",10/13/1937,MasterCard,5286759201830101,082,11/2020,"2014 MINI Cooper Coupe",79.2,183,50.585921,12.304726
421,Mrs.,Mignonette,Grimard,"60 rue du Gue Jacquet",CHÂTILLON,Île-de-France,92320,France,MignonetteGrimard@superrito.com,01.66.91.63.31,11/28/1973,MasterCard,5226120317238353,447,11/2017,"2000 Suzuki X90",76.9,171,48.863183,2.371717
422,Ms.,Sara,Lemann,"Heinrich Heine Platz 12",Großdubrau,"Freistaat Sachsen",02693,Germany,SaraLemann@cuvox.de,"03591 25 51 83",8/6/1970,MasterCard,5274786927430308,858,11/2018,"1999 Aston Martin DB7",105.4,171,51.216611,14.374294
422,Mr.,Tyson,Clavet,"54 rue des Dunes",SAINT-MARTIN,Guadeloupe,97150,France,TysonClavet@gustr.com,05.05.84.17.39,5/15/1964,MasterCard,5379666506567148,821,6/2020,"2006 Audi S4",78.0,179,43.568225,5.931065
423,Mr.,Dieter,Moench,"Flotowstr. 46",Beyernaumburg,Sachsen-Anhalt,06528,Germany,DieterMoench@cuvox.de,"03464 58 57 44",3/1/1974,Visa,4485761335831569,875,1/2017,"2008 Chrysler Crossfire",67.5,178,51.459323,11.137432
423,Mr.,Agrican,Tachel,"40 Rue Frédéric Chopin",VICHY,Auvergne,03200,France,AgricanTachel@cuvox.de,04.53.91.69.81,9/23/1936,MasterCard,5297928215287718,892,5/2021,"2000 Rolls-Royce Silver Seraph",69.8,166,46.195794,3.45949
425,Mr.,Uwe,Busch,"Ansbacher Strasse 82",Hochscheid,Rheinland-Pfalz,54472,Germany,UweBusch@gustr.com,"06536 57 21 70",9/28/1991,MasterCard,5200311222049643,945,1/2018,"2000 Jeep Cherokee",64.6,189,49.877889,7.160738
425,Mr.,Merle,Routhier,"15 rue Sébastopol",SAINTE-MARIE,Guyane,97438,France,MerleRouthier@teleworm.us,05.80.06.32.99,9/13/1977,MasterCard,5422378390259553,131,4/2019,"2008 Nissan Sentra",70.3,179,42.77302,3.060841
426,Mr.,Max,Oster,"Knesebeckstraße 8",Stolberg,Sachsen-Anhalt,06545,Germany,MaxOster@superrito.com,"02402 64 01 37",5/4/1982,Visa,4916529912872440,610,3/2020,"2002 Infiniti G35",107.2,176,50.766075,6.197924
427,Mrs.,Emmeline,Bellefeuille,"58 Avenue Millies Lacroix",EAUBONNE,Île-de-France,95600,France,EmmelineBellefeuille@gustr.com,01.08.17.77.48,4/28/1966,Visa,4916946575924088,408,4/2018,"2007 Chevrolet Evanda",96.8,153,49.089809,2.249178
428,Mr.,Quennel,Ruest,"79 Rue Marie De Médicis",CAMBRAI,Nord-Pas-de-Calais,59400,France,QuennelRuest@fleckens.hu,03.75.78.07.56,11/6/1988,Visa,4929198807614534,297,3/2018,"1992 Ford Sierra",94.4,189,50.190631,3.290186
429,Ms.,Kristin,Faerber,"Lietzensee-Ufer 43",Lauchhammer,Brandenburg,01969,Germany,KristinFaerber@fleckens.hu,"03574 55 86 25",9/7/1940,MasterCard,5283441377372431,662,11/2019,"2006 Fiat Multipla",56.5,161,51.531892,13.816051
430,Mrs.,Sabine,St-Jacques,"35 boulevard Aristide Briand","LE GRAND-QUEVILLY",Haute-Normandie,76120,France,SabineSt-Jacques@jourrapide.com,02.72.80.98.37,2/26/1974,Visa,4716851100398331,210,12/2019,"2014 Mitsubishi Outlander",52.5,173,49.396241,0.956512
431,Ms.,Simone,Schmitz,"Pasewalker Straße 89",Birkenfeld,"Freistaat Bayern",97834,Germany,SimoneSchmitz@dayrep.com,"07231 51 76 45",9/1/1989,MasterCard,5209912775214152,509,6/2018,"2011 Chrysler Town & Country",57.1,166,49.784032,9.759341
431,Mr.,Guillaume,Mazuret,"17 rue des Dunes",SAINT-MARTIN-D'HÈRES,Rhône-Alpes,38400,France,GuillaumeMazuret@cuvox.de,04.05.57.98.09,5/27/1976,Visa,4485734412596272,445,1/2017,"2000 Nissan Xterra",64.9,176,45.242041,5.713735
435,Mrs.,Mandy,Kluge,"Kastanienallee 9",Nortmoor,Niedersachsen,26845,Germany,MandyKluge@einrot.com,"04950 99 34 89",3/23/1945,MasterCard,5518821586788476,107,9/2019,"2008 Dodge Sprinter",50.0,161,53.139146,7.572959
436,Mr.,Peter,Schweitzer,"Gubener Str. 25","Bad Tölz","Freistaat Bayern",83641,Germany,PeterSchweitzer@gustr.com,"08041 94 42 99",3/25/1950,Visa,4539714231185131,753,8/2021,"1999 Hyundai Sonata",74.6,168,47.667599,11.534706
436,Mr.,Alexis,Abril,"31 Rue Joseph Vernet",BAIE-MAHAULT,Guadeloupe,97122,France,AlexisAbril@cuvox.de,05.91.17.35.21,9/10/1973,MasterCard,5108018843142078,957,12/2021,"2012 Suzuki Jimny",89.6,181,44.026973,1.156913
437,Dr.,Dominic,Nadeau,"45 avenue de Bouvines",SÈTE,Languedoc-Roussillon,34200,France,DominicNadeau@gustr.com,04.25.38.84.19,12/8/1933,MasterCard,5168183196025770,903,10/2021,"2012 Audi A7",62.2,183,43.408135,3.633169
438,Mr.,Daniel,Faerber,"Hermannstrasse 56","Worms Pfiffligheim",Rheinland-Pfalz,67549,Germany,DanielFaerber@armyspy.com,"06241 13 59 66",11/27/1946,MasterCard,5224759923323463,109,2/2017,"2004 Caterham 7",80.0,168,49.722618,8.410898
438,Mr.,Legget,Duranseau,"69 rue Marguerite",VILLIERS-LE-BEL,Île-de-France,95400,France,LeggetDuranseau@rhyta.com,01.12.25.30.56,10/22/1953,Visa,4539248287863259,487,8/2018,"2015 Lincoln MKC",101.2,166,48.997158,2.375907
439,Mr.,Lukas,Bieber,"Gotzkowskystraße 6",Geseke,Nordrhein-Westfalen,59590,Germany,LukasBieber@fleckens.hu,"02942 17 38 09",10/20/1998,Visa,4916239703197219,002,12/2017,"2008 Mini Cooper",76.5,178,51.553728,8.434162
440,Mr.,Serge,Senneville,"59 rue Petite Fusterie",BOURGOIN-JALLIEU,Rhône-Alpes,38300,France,SergeSenneville@cuvox.de,04.05.83.45.96,6/5/1946,MasterCard,5466076477973339,839,11/2018,"2004 BMW 120",100.9,166,45.545791,5.379164
441,Mr.,Arno,Lafond,"7 rue Léon Dierx",LONGJUMEAU,Île-de-France,91160,France,ArnoLafond@armyspy.com,01.22.88.22.81,2/2/1955,Visa,4556179676278668,437,11/2020,"2009 Alpina B3",98.8,168,48.600438,2.280474
442,Ms.,Voleta,Blanc,"88 rue Marguerite",VINCENNES,Île-de-France,94300,France,VoletaBlanc@einrot.com,01.72.03.96.53,11/19/1955,Visa,4556382438486021,411,8/2017,"2012 Nissan Xterra",99.4,168,48.921967,2.469122
445,Mr.,Kristian,Gerste,"Schoenebergerstrasse 75",Stralsund,Mecklenburg-Vorpommern,18405,Germany,KristianGerste@einrot.com,"03831 58 06 98",2/7/1965,MasterCard,5543645519883578,281,9/2020,"1999 Nissan 200 SX Silvia",82.7,178,54.293694,13.128368
445,Ms.,Eglantine,Patel,"61 rue Lenotre",RAMBOUILLET,Île-de-France,78120,France,EglantinePatel@cuvox.de,01.30.99.41.83,5/25/1993,Visa,4539997024178609,043,5/2018,"1997 Kia Sephia",87.2,168,48.643551,1.945011
446,Ms.,Charlotte,Pouchard,"44 Chemin des Bateliers",AJACCIO,Corse,20000,France,CharlottePouchard@superrito.com,04.34.09.83.56,8/31/1995,MasterCard,5142004720512755,049,11/2018,"1994 Mercury Tracer",50.1,158,41.838431,8.825958
447,Mr.,Peverell,Brisebois,"1 Rue du Palais",ÉTAMPES,Île-de-France,91150,France,PeverellBrisebois@superrito.com,01.90.45.02.51,10/17/1932,MasterCard,5595009479279532,498,10/2017,"2001 Nissan Ideo",61.9,173,48.228654,2.196223
448,Mr.,Norris,Fecteau,"69 avenue de Provence",VANDOEUVRE-LÈS-NANCY,Lorraine,54500,France,NorrisFecteau@cuvox.de,03.58.79.90.00,8/6/1944,Visa,4485930264870118,812,2/2021,"2001 Donkervoort D8",103.9,173,48.593866,6.187543
449,Mrs.,Pénélope,Lespérance,"61 rue Grande Fusterie",BRUAY-LA-BUISSIÈRE,Nord-Pas-de-Calais,62700,France,PenelopeLesperance@fleckens.hu,02.38.41.72.03,12/8/1988,MasterCard,5405460541812141,478,4/2020,"2009 Honda Ridgeline",64.8,158,50.463716,2.63211
450,Mr.,Jörg,Frankfurter,"Mellingburgredder 77",Dittenheim,"Freistaat Bayern",91723,Germany,JorgFrankfurter@superrito.com,"09146 65 87 71",1/18/1967,Visa,4556890535334050,215,3/2021,"2002 Lexus LX",102.2,176,48.954329,10.88101
450,Mrs.,Alacoque,Hétu,"86 rue Michel Ange","LE HAVRE",Haute-Normandie,76610,France,AlacoqueHetu@dayrep.com,02.88.72.22.37,12/16/1980,Visa,4916770647878480,495,4/2017,"2007 Volvo C70",97.5,161,49.590625,0.198196
453,Mrs.,Johanna,Lehmann,"Ufnau Strasse 61",Irsee,"Freistaat Bayern",87660,Germany,JohannaLehmann@superrito.com,"08340 51 72 64",11/17/1991,MasterCard,5446646689399468,750,8/2017,"2005 Suzuki Baleno",98.8,156,47.872159,10.564618
454,Mr.,Peter,Meyer,"Pohlstrasse 23",Wallmoden,Niedersachsen,38729,Germany,PeterMeyer@dayrep.com,"05341 67 42 88",10/9/1980,Visa,4539533743738777,650,4/2017,"2012 Zenvo ST1",66.4,178,51.953241,10.224525
454,Mrs.,Corinne,Poisson,"8 rue Marguerite",VILLEURBANNE,Rhône-Alpes,69100,France,CorinnePoisson@cuvox.de,04.43.16.15.09,9/15/1940,MasterCard,5493332161215140,074,3/2017,"2001 Suzuki Swift",83.3,151,45.751385,4.845247
455,Mr.,Philipp,Wexler,"Landhausstraße 47",Rüdersdorf,Brandenburg,15562,Germany,PhilippWexler@cuvox.de,"03362 72 32 60",8/9/1941,Visa,4929032826622485,611,5/2021,"2005 Mercedes-Benz V",85.7,168,52.457801,13.711591
457,Ms.,Ermengardi,Drouin,"35 Rue de Verdun",MONTFERMEIL,Île-de-France,93370,France,ErmengardiDrouin@teleworm.us,01.14.81.09.11,4/7/1933,Visa,4556164339150512,881,11/2020,"2001 Ford Think Neighbor",72.9,158,48.992336,2.6053
458,Ms.,Marguerite,Riquier,"43 Avenue Millies Lacroix",DUNKERQUE,Nord-Pas-de-Calais,59640,France,MargueriteRiquier@gustr.com,03.25.98.16.48,4/9/1952,MasterCard,5144908283790061,747,2/2017,"2005 AC Aceca",81.9,168,51.082541,2.29966
459,Mr.,Daniel,Kohler,"Paderborner Strasse 19",Mering,"Freistaat Bayern",86415,Germany,DanielKohler@dayrep.com,"08233 62 80 89",6/24/1938,MasterCard,5326078312865241,809,1/2020,"2010 Cadillac CTS",66.8,178,48.281393,11.013371
459,Ms.,Hélène,Breton,"49 rue de la Mare aux Carats",MONTREUIL,Île-de-France,93100,France,HeleneBreton@dayrep.com,01.64.55.69.57,12/31/1967,Visa,4929968808215584,799,7/2020,"2015 Mazda Mazda5",93.8,153,48.848126,2.416259
460,Mrs.,Cécile,Poisson,"40 rue Petite Fusterie",BOURGES,Centre,18000,France,CecilePoisson@dayrep.com,02.73.28.68.88,1/30/1936,Visa,4539263300493992,705,12/2018,"1992 Mercedes-Benz SL",71.4,168,47.070395,2.352262
461,Mr.,Michael,Klug,"Koepenicker Str. 5",Niederbachheim,Rheinland-Pfalz,56357,Germany,MichaelKlug@rhyta.com,"06772 73 48 71",7/28/1954,Visa,4716987117723028,069,5/2019,"2005 Avanti Sport Convertible",93.4,183,50.225331,7.851429
461,Mr.,Paien,Mailloux,"64 Place Napoléon",LANESTER,Bretagne,56600,France,PaienMailloux@jourrapide.com,02.49.40.66.83,1/24/1975,Visa,4916428209698438,142,11/2017,"2002 Mazda 2",87.5,179,47.712939,-3.420697
462,Mr.,Guy,Bernier,"89 boulevard Aristide Briand","LE CHESNAY",Île-de-France,78150,France,GuyBernier@armyspy.com,01.70.17.86.97,7/8/1930,Visa,4716367504220427,143,3/2019,"1999 Vauxhall Frontera",82.8,168,48.901356,2.083846
463,Mrs.,Dorene,Beauchamp,"82 rue de la Hulotais",SAINT-PIERRE-ET-MIQUELON,Île-de-France,97500,France,DoreneBeauchamp@gustr.com,05.52.70.89.59,5/9/1933,Visa,4485077855811216,191,11/2020,"2000 Mercedes-Benz Vision",74.5,151,49.059984,-1.064535
465,Mrs.,Vanessa,Neudorf,"Kirchenallee 75",Osterhofen,"Freistaat Bayern",94483,Germany,VanessaNeudorf@dayrep.com,"09932 37 73 84",11/23/1946,Visa,4532585792965799,889,11/2018,"2011 Dodge Grand Caravan",70.4,156,48.664107,13.051045
465,Ms.,Arnaude,Laliberté,"61 rue Pierre Motte",SAINT-DIÉ,Lorraine,88100,France,ArnaudeLaliberte@gustr.com,03.10.98.20.22,3/6/1950,MasterCard,5160000597234900,186,4/2018,"2005 Volvo S60",51.5,168,48.307561,6.998412
466,Mr.,Benjamin,Furst,"Paderborner Strasse 23","Markt Wald","Freistaat Bayern",86865,Germany,BenjaminFurst@armyspy.com,"08262 14 63 78",12/11/1943,MasterCard,5401655642052828,534,8/2020,"2002 Mitsubishi Magna",64.2,184,48.18425,10.598392
467,Mr.,Tabor,Louineaux,"39 rue Gouin de Beauchesne",SAINT-NAZAIRE,"Pays de la Loire",44600,France,TaborLouineaux@superrito.com,02.00.62.76.42,7/26/1947,Visa,4539691336079650,684,11/2021,"2002 Suzuki Aerio",108.5,176,47.240002,-2.194702
468,Mr.,Marmion,Aubé,"99 rue Bonneterie",MILLAU,Midi-Pyrénées,12100,France,MarmionAube@einrot.com,05.37.57.57.35,1/22/1973,MasterCard,5401990563512983,253,12/2019,"2009 Pagani Zonda",65.8,186,44.086081,3.019057
